roadStationId;latitude;longitude;collectionInterval;name;roadNumber;roadSection;distanceFromRoadSectionStart;presentationName;resolution;direction;imageUrl
1502;25.616391;60.390238;720;Road 7 Porvoo, Harabacka;7;8;3801;Porvoo;704x576;UNKNOWN;http://weathercam.digitraffic.fi/C0150200.jpg
1503;23.99616;60.05374;720;Road 51 Inkoo;51;14;422;Inkooseen;704x576;INCREASING_DIRECTION;http://weathercam.digitraffic.fi/C0150301.jpg;Hankoon;704x576;DECREASING_DIRECTION;http://weathercam.digitraffic.fi/C0150302.jpg;Tienpinta;704x576;SPECIAL_DIRECTION;http://weathercam.digitraffic.fi/C0150309.jpg
1504;24.235601;60.536727;720;Road 2 Karkkila, Kappeli;2;13;3818;Poriin;videoResolutionWidth=1280&videoResolutionHeight=720;INCREASING_DIRECTION;http://weathercam.digitraffic.fi/C0150401.jpg;Helsinkiin;videoResolutionWidth=1280&videoResolutionHeight=720;DECREASING_DIRECTION;http://weathercam.digitraffic.fi/C0150402.jpg;Tienpinta;videoResolutionWidth=1280&videoResolutionHeight=720;SPECIAL_DIRECTION;http://weathercam.digitraffic.fi/C0150409.jpg
1505;23.303264;60.061798;720;Road 52 Raasepori, Tenhola;52;2;5379;Perniöön;704x576;INCREASING_DIRECTION;http://weathercam.digitraffic.fi/C0150501.jpg
1506;24.241007;60.311546;720;Road 25 Myllylampi;25;22;115;Tie 25 Hyvinkäälle;1280x720;INCREASING_DIRECTION;http://weathercam.digitraffic.fi/C0150601.jpg;Tie 25 Hankoon;1280x720;DECREASING_DIRECTION;http://weathercam.digitraffic.fi/C0150602.jpg;Tie 110 Turkuun;1280x720;CROSSING_ROAD_INCREASING_DIRECTION;http://weathercam.digitraffic.fi/C0150603.jpg;Tie 110 Helsinkiin;1280x720;CROSSING_ROAD_DECREASING_DIRECTION;http://weathercam.digitraffic.fi/C0150604.jpg;Tie 25 Tienpinta;1280x720;SPECIAL_DIRECTION;http://weathercam.digitraffic.fi/C0150609.jpg
1507;23.005713;59.842401;720;Road 25 Hanko;25;2;65;Tie 25 Hyvinkäälle;704x576;INCREASING_DIRECTION;http://weathercam.digitraffic.fi/C0150701.jpg
1508;25.350988;60.671599;720;Road 4 Mäntsälä;4;113;3850;Tie 4 Lahteen;1280x720;INCREASING_DIRECTION;http://weathercam.digitraffic.fi/C0150801.jpg;Tie 4 Helsinkiin;1280x720;DECREASING_DIRECTION;http://weathercam.digitraffic.fi/C0150802.jpg;Tie 140 Lahteen;1280x720;CROSSING_ROAD_INCREASING_DIRECTION;http://weathercam.digitraffic.fi/C0150803.jpg;Tie 140 Helsinkiin;1280x720;CROSSING_ROAD_DECREASING_DIRECTION;http://weathercam.digitraffic.fi/C0150804.jpg;Tienpinta;1280x720;SPECIAL_DIRECTION;http://weathercam.digitraffic.fi/C0150809.jpg
1509;24.818794;60.566139;720;Road 3 Hyvinkää;3;108;0;Tie 3 Tampereelle;1280x720;INCREASING_DIRECTION;http://weathercam.digitraffic.fi/C0150901.jpg;Tie 3 Helsinkiin;1280x720;DECREASING_DIRECTION;http://weathercam.digitraffic.fi/C0150902.jpg;Tie 25 Mäntsälään;1280x720;CROSSING_ROAD_INCREASING_DIRECTION;http://weathercam.digitraffic.fi/C0150903.jpg;Tie 25 Hankoon;1280x720;CROSSING_ROAD_DECREASING_DIRECTION;http://weathercam.digitraffic.fi/C0150904.jpg;Tie 3 Tienpinta;1280x720;SPECIAL_DIRECTION;http://weathercam.digitraffic.fi/C0150909.jpg
1510;23.904879;60.385844;720;Road 110 Lohja, Oinola;110;17;3021;Turkuun;1280x720;INCREASING_DIRECTION;http://weathercam.digitraffic.fi/C0151001.jpg;Helsinkiin;1280x720;DECREASING_DIRECTION;http://weathercam.digitraffic.fi/C0151002.jpg;Tienpinta;1280x720;SPECIAL_DIRECTION;http://weathercam.digitraffic.fi/C0151009.jpg
1511;24.981364;60.28918;720;Road 45 Veromies;45;3;80;Tuusulaan;704x576;INCREASING_DIRECTION;http://weathercam.digitraffic.fi/C0151101.jpg;Helsinkiin;704x576;DECREASING_DIRECTION;http://weathercam.digitraffic.fi/C0151102.jpg;Kehä III Länteen;704x576;CROSSING_ROAD_DECREASING_DIRECTION;http://weathercam.digitraffic.fi/C0151104.jpg;Tienpinta;704x576;SPECIAL_DIRECTION;http://weathercam.digitraffic.fi/C0151109.jpg
1513;24.948435;60.244449;720;Road 101 Helsinki, Pakila;101;7;0;Kehä I Itään;1280x720;INCREASING_DIRECTION;http://weathercam.digitraffic.fi/C0151301.jpg;Kehä I Länteen;1280x720;DECREASING_DIRECTION;http://weathercam.digitraffic.fi/C0151302.jpg;Tie 45 Tuusulaan;1280x720;CROSSING_ROAD_INCREASING_DIRECTION;http://weathercam.digitraffic.fi/C0151303.jpg;Tie 45 Tienpinta;1280x720;SPECIAL_DIRECTION;http://weathercam.digitraffic.fi/C0151309.jpg
1521;24.807374;60.198827;720;Road 101 Turvesuontie;101;2;2950;Itään;1280x720;INCREASING_DIRECTION;http://weathercam.digitraffic.fi/C0152101.jpg;Länteen;1280x720;DECREASING_DIRECTION;http://weathercam.digitraffic.fi/C0152102.jpg;Tienpinta;1280x720;SPECIAL_DIRECTION;http://weathercam.digitraffic.fi/C0152109.jpg
1522;24.808657;60.186893;720;Road 101 Kalevalantie;101;2;1600;Itään;704x576;INCREASING_DIRECTION;http://weathercam.digitraffic.fi/C0152201.jpg;Länteen;704x576;DECREASING_DIRECTION;http://weathercam.digitraffic.fi/C0152202.jpg;Tienpinta;704x576;SPECIAL_DIRECTION;http://weathercam.digitraffic.fi/C0152209.jpg
1523;25.06072;60.247251;720;Road 4 Helsinki, Tattarisuo;4;103;1574;Lahteen;1280x720;INCREASING_DIRECTION;http://weathercam.digitraffic.fi/C0152301.jpg;Helsinkiin;1280x720;DECREASING_DIRECTION;http://weathercam.digitraffic.fi/C0152302.jpg;Tienpinta;1280x720;SPECIAL_DIRECTION;http://weathercam.digitraffic.fi/C0152309.jpg
1524;24.511089;60.133523;720;Road 51 Kirkkonummi, Jorvas;51;8;1480;Inkooseen;1280x720;INCREASING_DIRECTION;http://weathercam.digitraffic.fi/C0152401.jpg;Helsinkiin;1280x720;DECREASING_DIRECTION;http://weathercam.digitraffic.fi/C0152402.jpg;Tie 11277 Långvikiin;1280x720;CROSSING_ROAD_INCREASING_DIRECTION;http://weathercam.digitraffic.fi/C0152403.jpg;Tie 11277 Jorvakseen;1280x720;CROSSING_ROAD_DECREASING_DIRECTION;http://weathercam.digitraffic.fi/C0152404.jpg;Tienpinta;1280x720;SPECIAL_DIRECTION;http://weathercam.digitraffic.fi/C0152409.jpg
1526;24.645423;60.220069;720;Road 1 Espoo, Lommila;1;6;0;0x0;UNKNOWN;http://weathercam.digitraffic.fi/C0152600.jpg
1527;24.567094;60.244194;720;Road 1 Espoo, Hista;1;7;0;0x0;UNKNOWN;http://weathercam.digitraffic.fi/C0152700.jpg
1528;24.45371;60.273886;720;Road 1 Kirkkonummi, Veikkola;1;8;0;Helsinkiin;704x576;INCREASING_DIRECTION;http://weathercam.digitraffic.fi/C0152801.jpg
1529;24.366624;60.293397;720;Road 1 Vihti, Palojärvi;1;9;0;0x0;UNKNOWN;http://weathercam.digitraffic.fi/C0152900.jpg
1530;24.271469;60.303066;720;Road 1 Lohja, Hevoskallio;1;10;1059;0x0;UNKNOWN;http://weathercam.digitraffic.fi/C0153000.jpg
1531;24.218153;60.301546;720;Road 1 Lohja, Muijala;1;11;0;0x0;UNKNOWN;http://weathercam.digitraffic.fi/C0153100.jpg
1532;25.114463;60.360185;720;Road 4 Vantaa, Korso;4;106;1790;Lahteen;704x576;INCREASING_DIRECTION;http://weathercam.digitraffic.fi/C0153201.jpg;Helsinkiin;704x576;DECREASING_DIRECTION;http://weathercam.digitraffic.fi/C0153202.jpg;Tienpinta;704x576;SPECIAL_DIRECTION;http://weathercam.digitraffic.fi/C0153209.jpg
1533;24.808415;60.354587;500;Road 3 Vantaa, Klaukkala;3;103;7456;Tie 3;704x576;UNKNOWN;http://weathercam.digitraffic.fi/C0153300.jpg
1535;24.899751;60.235281;720;Road 101 Pirkkola;101;6;0;Kehä I Itään;704x576;INCREASING_DIRECTION;http://weathercam.digitraffic.fi/C0153501.jpg;Kehä I Länteen;704x576;DECREASING_DIRECTION;http://weathercam.digitraffic.fi/C0153502.jpg;Tie 3 Hämeenlinnaan;704x576;CROSSING_ROAD_INCREASING_DIRECTION;http://weathercam.digitraffic.fi/C0153503.jpg;Tie 3 Helsinkiin;704x576;CROSSING_ROAD_DECREASING_DIRECTION;http://weathercam.digitraffic.fi/C0153504.jpg;Tienpinta;704x576;SPECIAL_DIRECTION;http://weathercam.digitraffic.fi/C0153509.jpg
1536;25.862399;60.621867;720;Road 167 Myrskylä, Hallila;167;12;3894;Koskenkylään;1280x720;INCREASING_DIRECTION;http://weathercam.digitraffic.fi/C0153601.jpg;Orimattilaan;1280x720;DECREASING_DIRECTION;http://weathercam.digitraffic.fi/C0153602.jpg;Tienpinta;1280x720;SPECIAL_DIRECTION;http://weathercam.digitraffic.fi/C0153609.jpg
1538;26.199342;60.618436;720;Road 6 Lapinjärvi;6;120;2580;Kouvolaan;1280x720;INCREASING_DIRECTION;http://weathercam.digitraffic.fi/C0153801.jpg;Helsinkiin;1280x720;DECREASING_DIRECTION;http://weathercam.digitraffic.fi/C0153802.jpg;Ylikulkusilta;1280x720;CROSSING_ROAD_INCREASING_DIRECTION;http://weathercam.digitraffic.fi/C0153803.jpg;Tienpinta;1280x720;SPECIAL_DIRECTION;http://weathercam.digitraffic.fi/C0153809.jpg
1539;25.170316;60.224998;720;Helsinki, Vuosaari harbor;103;1;4131;0x0;UNKNOWN;http://weathercam.digitraffic.fi/C0153900.jpg
1555;25.14726;60.245129;720;Road 170 Helsinki, Gubbacka;170;3;5068;Tie 170 - Kehä III -liittymä;0x0;UNKNOWN;http://weathercam.digitraffic.fi/C0155500.jpg
1568;24.669609;60.223766;720;Road 50 Bemböle;50;3;1364;0x0;UNKNOWN;http://weathercam.digitraffic.fi/C0156800.jpg
1569;24.697792;60.241334;720;Road 50 Pihlajarinne;50;3;3969;0x0;UNKNOWN;http://weathercam.digitraffic.fi/C0156900.jpg
1570;24.732951;60.262249;720;Road 50 Vanhakylä;50;4;1578;Kehä III Kulloonmäki;1280x720;UNKNOWN;http://weathercam.digitraffic.fi/C0157000.jpg
1571;24.761659;60.26782;720;Road 50 Juvanmalmi;50;4;3285;0x0;UNKNOWN;http://weathercam.digitraffic.fi/C0157100.jpg
1572;24.804803;60.273993;720;Road 50 Vihdintie;50;4;5880;0x0;UNKNOWN;http://weathercam.digitraffic.fi/C0157200.jpg
1573;24.834897;60.287664;720;Road 50 Martinlaakso;50;5;2275;0x0;UNKNOWN;http://weathercam.digitraffic.fi/C0157300.jpg
1574;24.857657;60.292353;720;Road 50 Vantaankoski;50;5;3717;0x0;UNKNOWN;http://weathercam.digitraffic.fi/C0157400.jpg
1575;24.883598;60.297772;720;Road 50 Tuupakka;50;6;1613;0x0;UNKNOWN;http://weathercam.digitraffic.fi/C0157500.jpg
1576;24.915988;60.296991;720;Road 50 Kalliosola;50;6;3406;0x0;UNKNOWN;http://weathercam.digitraffic.fi/C0157600.jpg
1577;24.959519;60.294819;720;Road 50 Airport;50;6;5847;0x0;UNKNOWN;http://weathercam.digitraffic.fi/C0157700.jpg
1578;24.9804;60.287801;720;Road 50 Kirkonkylä;50;6;7229;0x0;UNKNOWN;http://weathercam.digitraffic.fi/C0157800.jpg
1579;25.013957;60.285747;720;Road 50 Suutarila;50;7;1862;0x0;UNKNOWN;http://weathercam.digitraffic.fi/C0157900.jpg
1580;25.028912;60.282826;720;Road 50 Tikkurila;50;7;2845;0x0;UNKNOWN;http://weathercam.digitraffic.fi/C0158000.jpg
1581;25.087171;60.27422;720;Road 50 Vaarala;50;7;6146;704x576;INCREASING_DIRECTION;http://weathercam.digitraffic.fi/C0158101.jpg
1582;25.12546;60.257352;720;Road 50 Västersundom;50;8;2924;0x0;UNKNOWN;http://weathercam.digitraffic.fi/C0158200.jpg
1584;24.534527;60.137986;720;Road 50 Kirkkonummi, Inkilä;50;1;106;Kehä III, itään;704x576;INCREASING_DIRECTION;http://weathercam.digitraffic.fi/C0158401.jpg;Kehä III, silta;704x576;DECREASING_DIRECTION;http://weathercam.digitraffic.fi/C0158402.jpg;Tie 51 Hankoon;704x576;CROSSING_ROAD_INCREASING_DIRECTION;http://weathercam.digitraffic.fi/C0158403.jpg;Tie 51 Helsinkiin;704x576;CROSSING_ROAD_DECREASING_DIRECTION;http://weathercam.digitraffic.fi/C0158404.jpg;Kehä III, tienpinta;704x576;SPECIAL_DIRECTION;http://weathercam.digitraffic.fi/C0158409.jpg
1587;24.898843;60.207997;720;Road 100 Hakamäentie, Kivihaka;100;1;200;Hakamäentie, masto;1280x720;UNKNOWN;http://weathercam.digitraffic.fi/C0158700.jpg
1590;24.907594;60.208315;720;Road 100 Hakamäentie, Ilmala;100;1;715;Hakamäentie, Ilmala;1280x720;UNKNOWN;http://weathercam.digitraffic.fi/C0159000.jpg
1600;24.816278;60.213076;720;Road 101 Säterinsolmu;101;3;457;0x0;UNKNOWN;http://weathercam.digitraffic.fi/C0160000.jpg
1601;24.816388;60.215225;720;Road 101 Perkkaa;101;3;703;0x0;UNKNOWN;http://weathercam.digitraffic.fi/C0160100.jpg
1602;24.816275;60.218286;720;Road 101 Vermo;101;3;1051;0x0;UNKNOWN;http://weathercam.digitraffic.fi/C0160200.jpg
1603;24.816436;60.219932;720;Road 101 Espoo, Leppävaara;101;4;147;0x0;UNKNOWN;http://weathercam.digitraffic.fi/C0160300.jpg
1616;24.825366;60.226852;720;Road 101 Espoo, Vallikallio;101;4;1075;0x0;UNKNOWN;http://weathercam.digitraffic.fi/C0161600.jpg
1617;24.825081;60.227071;720;Road 101 LRamppi;101;4;1099;0x0;UNKNOWN;http://weathercam.digitraffic.fi/C0161700.jpg
1618;24.827347;60.228303;720;Road 101 Lintuvaara;101;4;1287;0x0;UNKNOWN;http://weathercam.digitraffic.fi/C0161800.jpg
1619;24.827796;60.228607;720;Road 101 Mäkkylä;101;4;1514;0x0;UNKNOWN;http://weathercam.digitraffic.fi/C0161900.jpg
1620;24.836388;60.229502;720;Road 101 Reimarla;101;4;1805;0x0;UNKNOWN;http://weathercam.digitraffic.fi/C0162000.jpg
1621;24.844443;60.230325;720;Road 101 Konala;101;4;2261;0x0;UNKNOWN;http://weathercam.digitraffic.fi/C0162100.jpg
1622;23.435554;59.982241;720;Road 25 Raasepori;25;9;948;Hyvinkäälle;704x576;INCREASING_DIRECTION;http://weathercam.digitraffic.fi/C0162201.jpg;Hankoon;704x576;DECREASING_DIRECTION;http://weathercam.digitraffic.fi/C0162202.jpg;Tienpinta;704x576;SPECIAL_DIRECTION;http://weathercam.digitraffic.fi/C0162209.jpg
1623;24.661147;60.215551;720;Road 1 Espoo, Lommila;1;5;5841;Helsinkiin;704x576;UNKNOWN;http://weathercam.digitraffic.fi/C0162300.jpg
1624;24.51344;60.447062;720;Road 25 Vihti, Haimoo;25;27;20;Hyvinkäälle;1280x720;INCREASING_DIRECTION;http://weathercam.digitraffic.fi/C0162401.jpg;Hankoon;1280x720;DECREASING_DIRECTION;http://weathercam.digitraffic.fi/C0162402.jpg;Tienpinta;1280x720;SPECIAL_DIRECTION;http://weathercam.digitraffic.fi/C0162409.jpg
1625;23.914248;60.632842;720;Road 2 Lohja, Salkola;2;18;1565;Poriin;704x576;INCREASING_DIRECTION;http://weathercam.digitraffic.fi/C0162501.jpg;Helsinkiin;704x576;DECREASING_DIRECTION;http://weathercam.digitraffic.fi/C0162502.jpg;Tienpinta;704x576;SPECIAL_DIRECTION;http://weathercam.digitraffic.fi/C0162509.jpg
1626;25.188512;61.390201;720;Road 24 Arrakoski;24;11;6308;Jämsään;704x576;INCREASING_DIRECTION;http://weathercam.digitraffic.fi/C0162601.jpg;Lahteen;704x576;DECREASING_DIRECTION;http://weathercam.digitraffic.fi/C0162602.jpg;Tie 3254 Kaukelaan;704x576;CROSSING_ROAD_DECREASING_DIRECTION;http://weathercam.digitraffic.fi/C0162604.jpg;Tienpinta;704x576;SPECIAL_DIRECTION;http://weathercam.digitraffic.fi/C0162609.jpg
1627;23.148464;59.883032;720;Road 25 Hanko, Santala;25;4;4095;Hyvinkäälle;1280x720;INCREASING_DIRECTION;http://weathercam.digitraffic.fi/C0162701.jpg;Hankoon;1280x720;DECREASING_DIRECTION;http://weathercam.digitraffic.fi/C0162702.jpg;Tienpinta;1280x720;SPECIAL_DIRECTION;http://weathercam.digitraffic.fi/C0162709.jpg
1628;26.192467;60.460589;720;Road 7 Loviisa_Länsi;7;19;15;Kotkaan;704x576;INCREASING_DIRECTION;http://weathercam.digitraffic.fi/C0162801.jpg
1629;25.705268;60.418503;720;;7;10;1820;Kotkaan;704x576;UNKNOWN;http://weathercam.digitraffic.fi/C0162900.jpg
1630;25.892502;60.486235;720;;7;13;4511;Kotkaan;704x576;UNKNOWN;http://weathercam.digitraffic.fi/C0163000.jpg
1631;25.959015;60.491323;720;Tie 7 Loviisa, Koskenkylä;7;15;8;Kotkaan;704x576;UNKNOWN;http://weathercam.digitraffic.fi/C0163100.jpg
1632;26.263;60.47487;720;;7;19;4212;Helsinkiin;704x576;DECREASING_DIRECTION;http://weathercam.digitraffic.fi/C0163202.jpg
1633;26.411854;60.490819;720;;7;20;8713;Kotkaan;704x576;INCREASING_DIRECTION;http://weathercam.digitraffic.fi/C0163301.jpg
1634;26.419021;60.492027;720;;7;20;9130;Tie 7;0x0;UNKNOWN;http://weathercam.digitraffic.fi/C0163400.jpg
1635;26.428563;60.492768;720;;7;21;519;Tie 7 Kotkaan;0x0;UNKNOWN;http://weathercam.digitraffic.fi/C0163500.jpg
1636;26.432978;60.493173;720;;7;21;765;Kotkaan;0x0;UNKNOWN;http://weathercam.digitraffic.fi/C0163600.jpg
1645;26.440291;60.495503;720;;170;21;7250;Helsinkiin;0x0;UNKNOWN;http://weathercam.digitraffic.fi/C0164500.jpg
1646;26.447881;60.492311;720;;7;23;174;Helsinkiin;0x0;UNKNOWN;http://weathercam.digitraffic.fi/C0164600.jpg
1647;26.459539;60.490581;720;;7;23;197;Helsinkiin;0x0;UNKNOWN;http://weathercam.digitraffic.fi/C0164700.jpg
1649;25.786794;60.431051;720;;7;11;4657;Helsinkiin;0x0;UNKNOWN;http://weathercam.digitraffic.fi/C0164900.jpg
1650;25.20937;60.266368;720;;7;2;4860;Tie 7;704x576;UNKNOWN;http://weathercam.digitraffic.fi/C0165000.jpg
1651;25.325135;60.28135;720;Road 7 Sipoo, Sipoonlahti;7;4;2106;Tie 7;704x576;UNKNOWN;http://weathercam.digitraffic.fi/C0165100.jpg
1652;25.431892;60.319941;720;;7;6;2484;Tie 7;704x576;UNKNOWN;http://weathercam.digitraffic.fi/C0165200.jpg
1653;25.481299;60.331004;720;;7;7;2;704x576;UNKNOWN;http://weathercam.digitraffic.fi/C0165300.jpg
1654;25.672623;60.416538;720;;7;10;33;704x576;UNKNOWN;http://weathercam.digitraffic.fi/C0165400.jpg
1655;24.821251;60.331489;600;Road  3 Vantaa, Keimola;3;103;4785;Tie 3;704x576;UNKNOWN;http://weathercam.digitraffic.fi/C0165500.jpg
1656;24.840088;60.31483;600;Road 3 Vantaa, Kivistö;3;103;2655;Tie;704x576;UNKNOWN;http://weathercam.digitraffic.fi/C0165600.jpg
1657;24.844821;60.308403;600;Road 3 Vantaa, Kivistö;3;103;1890;Tie 3;704x576;UNKNOWN;http://weathercam.digitraffic.fi/C0165700.jpg
1658;25.261519;60.364585;600;Road 148, Sipoo;148;4;1585;Tienpinta;1280x720;SPECIAL_DIRECTION;http://weathercam.digitraffic.fi/C0165809.jpg
1660;24.749368;60.215883;600;;102;3;2100;Kehä II;1280x720;UNKNOWN;http://weathercam.digitraffic.fi/C0166000.jpg
1661;24.745514;60.207598;600;;102;3;1153;Kehä II;1280x720;UNKNOWN;http://weathercam.digitraffic.fi/C0166100.jpg
1664;24.746069;60.204778;600;;102;3;840;Kehä II;1280x720;UNKNOWN;http://weathercam.digitraffic.fi/C0166400.jpg
1665;24.749792;60.225501;600;;102;3;3182;Kehä II;1280x720;UNKNOWN;http://weathercam.digitraffic.fi/C0166500.jpg
1667;24.746028;60.20511;600;;102;2;2715;Kehä II;1280x720;UNKNOWN;http://weathercam.digitraffic.fi/C0166700.jpg
1668;24.75035;60.218684;600;;102;3;2423;Kehä II;1280x720;UNKNOWN;http://weathercam.digitraffic.fi/C0166800.jpg
1670;24.752164;60.166077;720;Road 51 Espoo, Matinkylä;51;5;47;Tie 51;1280x720;UNKNOWN;http://weathercam.digitraffic.fi/C0167000.jpg
1671;24.704973;60.160642;720;Road  51 Espoo, Finnoo;51;5;2768;Tie 51;1280x720;UNKNOWN;http://weathercam.digitraffic.fi/C0167100.jpg
1672;24.66466;60.1532;720;Road 51 Espoo, Kivenlahti;51;6;2389;Tie 51;1280x720;UNKNOWN;http://weathercam.digitraffic.fi/C0167200.jpg
1673;26.302931;60.699258;720;Road 6 Lapinjärvi, Kimonkylä;6;123;4397;Kouvolaan;1280x720;INCREASING_DIRECTION;http://weathercam.digitraffic.fi/C0167301.jpg;Helsinkiin;1280x720;DECREASING_DIRECTION;http://weathercam.digitraffic.fi/C0167302.jpg;Tienpinta;1280x720;SPECIAL_DIRECTION;http://weathercam.digitraffic.fi/C0167309.jpg
1674;24.910959;60.16591;600;Road 51 Helsinki, Ruoholahti;51;1;2160;Tie 51;1280x720;UNKNOWN;http://weathercam.digitraffic.fi/C0167400.jpg
1675;24.86532;60.16229;600;Road 51 Helsinki, Lauttasaari;51;2;645;Tie 51;1280x720;UNKNOWN;http://weathercam.digitraffic.fi/C0167500.jpg
1676;24.781863;60.168581;600;Road 51 Espoo, Westend;51;4;1625;Tie 51;1280x720;UNKNOWN;http://weathercam.digitraffic.fi/C0167600.jpg
1678;24.860694;60.234252;720;Road 101 Espoo, Leppävaara;101;5;12;Kehä I, Vihdintien risteys;704x576;UNKNOWN;http://weathercam.digitraffic.fi/C0167800.jpg
1679;24.816466;60.208902;720;Road 101 Espoo, Turunväylä;101;2;4089;Kehä I, Turunväylän risteys;704x576;UNKNOWN;http://weathercam.digitraffic.fi/C0167900.jpg
1680;24.896018;60.20815;720;Road 100 Hakamäentie, Kivihaka;100;1;60;Kivihaan tunneli, länsi;1280x720;UNKNOWN;http://weathercam.digitraffic.fi/C0168000.jpg
1695;24.827451;60.17734;600;;101;2;105;Tie 101 Espoo, Otasolmu;1280x720;UNKNOWN;http://weathercam.digitraffic.fi/C0169500.jpg
1697;24.826491;60.17877;600;;101;2;259;Tie 101 Espoo, Miestentie;1280x720;UNKNOWN;http://weathercam.digitraffic.fi/C0169700.jpg
1698;24.823864;60.179239;600;;101;2;394;Tie 101 Espoo, Tekniikantie;1280x720;UNKNOWN;http://weathercam.digitraffic.fi/C0169800.jpg
1699;24.815092;60.182346;600;;101;2;985;Tie 101 Espoo, Innopoli;1280x720;UNKNOWN;http://weathercam.digitraffic.fi/C0169900.jpg
1700;24.830122;60.177042;600;;101;2;26;Tie 101 Espoo, Keilaranta;1280x720;UNKNOWN;http://weathercam.digitraffic.fi/C0170000.jpg
1701;24.829302;60.17799;600;Tie 101 Espoo, Kuusisaarentie;101;2;57;Tie 101 Espoo, Karhusaarentie;1280x720;UNKNOWN;http://weathercam.digitraffic.fi/C0170100.jpg
1702;25.138578;60.483134;600;Road 4 Järvenpää, Isokytö;4;108;3395;Lahteen;1280x720;INCREASING_DIRECTION;http://weathercam.digitraffic.fi/C0170201.jpg;Helsinkiin;1280x720;DECREASING_DIRECTION;http://weathercam.digitraffic.fi/C0170202.jpg;Tienpinta;1280x720;SPECIAL_DIRECTION;http://weathercam.digitraffic.fi/C0170209.jpg
2502;23.445583;60.371808;720;Road 110 Salo, Kruusila;110;22;5518;Turkuun;704x576;INCREASING_DIRECTION;http://weathercam.digitraffic.fi/C0250201.jpg
2503;22.109971;60.464008;720;Road 185 Raisio, Nesteentie;185;2;1380;Naantaliin;704x576;DECREASING_DIRECTION;http://weathercam.digitraffic.fi/C0250302.jpg
2504;22.575119;61.476571;720;Road 11 Tervahauta;11;13;6694;Poriin;1280x720;INCREASING_DIRECTION;http://weathercam.digitraffic.fi/C0250401.jpg;Tampereelle;1280x720;DECREASING_DIRECTION;http://weathercam.digitraffic.fi/C0250402.jpg;Tienpinta;1280x720;SPECIAL_DIRECTION;http://weathercam.digitraffic.fi/C0250409.jpg
2505;22.013872;61.701606;720;Road 23 Pomarkku;23;104;1498;Parkano;1280x720;INCREASING_DIRECTION;http://weathercam.digitraffic.fi/C0250501.jpg;Pori;1280x720;DECREASING_DIRECTION;http://weathercam.digitraffic.fi/C0250502.jpg;Tienpinta;1280x720;SPECIAL_DIRECTION;http://weathercam.digitraffic.fi/C0250509.jpg
2506;23.113492;61.002959;721;Road 2 Loimaa, Leppijärvi;2;30;4630;Poriin;704x576;INCREASING_DIRECTION;http://weathercam.digitraffic.fi/C0250601.jpg
2507;21.857323;60.798274;720;Road 8  Laitila, Nästi;8;110;864;Poriin;1280x720;INCREASING_DIRECTION;http://weathercam.digitraffic.fi/C0250701.jpg;Turkuun;1280x720;DECREASING_DIRECTION;http://weathercam.digitraffic.fi/C0250702.jpg;Tienpinta;1280x720;SPECIAL_DIRECTION;http://weathercam.digitraffic.fi/C0250709.jpg
2508;23.527701;60.614068;720;Road 52 Somero;52;17;4350;Somerolle;1280x720;INCREASING_DIRECTION;http://weathercam.digitraffic.fi/C0250801.jpg;Saloon;1280x720;DECREASING_DIRECTION;http://weathercam.digitraffic.fi/C0250802.jpg;Tienpinta;1280x720;SPECIAL_DIRECTION;http://weathercam.digitraffic.fi/C0250809.jpg
2509;22.552335;60.64203;720;Road 9 Aura, Säästökallio;9;107;270;Tampereelle;1280x720;INCREASING_DIRECTION;http://weathercam.digitraffic.fi/C0250901.jpg;Turkuun;1280x720;DECREASING_DIRECTION;http://weathercam.digitraffic.fi/C0250902.jpg;Tienpinta;1280x720;SPECIAL_DIRECTION;http://weathercam.digitraffic.fi/C0250909.jpg
2511;23.594457;60.377934;720;Road 110 Salo, Kitula;110;21;2800;Turkuun;1280x720;INCREASING_DIRECTION;http://weathercam.digitraffic.fi/C0251101.jpg;Helsinkiin;1280x720;DECREASING_DIRECTION;http://weathercam.digitraffic.fi/C0251102.jpg;Tienpinta;1280x720;SPECIAL_DIRECTION;http://weathercam.digitraffic.fi/C0251109.jpg
2512;23.663891;60.372046;720;Road 110 Salo, Kolmperä;110;20;1250;Turkuun;1280x720;INCREASING_DIRECTION;http://weathercam.digitraffic.fi/C0251201.jpg;Helsinkiin;1280x720;DECREASING_DIRECTION;http://weathercam.digitraffic.fi/C0251202.jpg;Tienpinta;1280x720;SPECIAL_DIRECTION;http://weathercam.digitraffic.fi/C0251209.jpg
2513;23.322043;60.371548;720;Road 110 Salo, Muurla;110;22;12460;Tienpinta;704x576;SPECIAL_DIRECTION;http://weathercam.digitraffic.fi/C0251309.jpg
2514;21.742524;61.441827;720;Road 8 Pori, Vuoltee;8;126;1333;Poriin;1280x720;INCREASING_DIRECTION;http://weathercam.digitraffic.fi/C0251401.jpg;Turkuun;1280x720;DECREASING_DIRECTION;http://weathercam.digitraffic.fi/C0251402.jpg;Tienpinta;1280x720;SPECIAL_DIRECTION;http://weathercam.digitraffic.fi/C0251409.jpg
2515;22.843723;60.588269;720;Road 10 Marttila;10;6;3795;Hämeenlinnaan;1280x720;INCREASING_DIRECTION;http://weathercam.digitraffic.fi/C0251501.jpg;Turkuun;1280x720;DECREASING_DIRECTION;http://weathercam.digitraffic.fi/C0251502.jpg;Tie 224 Auraan;1280x720;CROSSING_ROAD_INCREASING_DIRECTION;http://weathercam.digitraffic.fi/C0251503.jpg;Tie 224 Saloon;1280x720;CROSSING_ROAD_DECREASING_DIRECTION;http://weathercam.digitraffic.fi/C0251504.jpg;Tienpinta;1280x720;SPECIAL_DIRECTION;http://weathercam.digitraffic.fi/C0251509.jpg
2516;21.483069;60.692405;720;Road 196 Uusikaupunki, Lokalahti;196;8;1447;Taivassaloon;1280x720;INCREASING_DIRECTION;http://weathercam.digitraffic.fi/C0251601.jpg;Uuteenkaupunkiin;1280x720;DECREASING_DIRECTION;http://weathercam.digitraffic.fi/C0251602.jpg;Tie 194 Vehmaalle;1280x720;CROSSING_ROAD_DECREASING_DIRECTION;http://weathercam.digitraffic.fi/C0251604.jpg;Tienpinta;1280x720;SPECIAL_DIRECTION;http://weathercam.digitraffic.fi/C0251609.jpg
2517;21.911443;61.106789;720;Road 12 Rauma, Lappi;12;106;3500;Tampereelle;1280x720;INCREASING_DIRECTION;http://weathercam.digitraffic.fi/C0251701.jpg;Raumalle;1280x720;DECREASING_DIRECTION;http://weathercam.digitraffic.fi/C0251702.jpg;Tienpinta;1280x720;SPECIAL_DIRECTION;http://weathercam.digitraffic.fi/C0251709.jpg
2518;22.683162;60.931291;720;Road 41 Virttaa;41;12;8351;Turkuun;704x576;DECREASING_DIRECTION;http://weathercam.digitraffic.fi/C0251802.jpg
2519;22.130739;61.305578;720;Road 2 Harjavalta, Nummi;2;43;1800;Huittisiin;704x576;DECREASING_DIRECTION;http://weathercam.digitraffic.fi/C0251902.jpg
2520;22.285453;60.497459;720;Road 40 Turku, Kärsämäki;40;4;0;Tie 40 Helsinkiin;1280x720;INCREASING_DIRECTION;http://weathercam.digitraffic.fi/C0252001.jpg;Tie 40 Naantaliin;1280x720;DECREASING_DIRECTION;http://weathercam.digitraffic.fi/C0252002.jpg;Tie 9 Tampereelle;1280x720;CROSSING_ROAD_INCREASING_DIRECTION;http://weathercam.digitraffic.fi/C0252003.jpg;Tie 9 Turkuun;1280x720;CROSSING_ROAD_DECREASING_DIRECTION;http://weathercam.digitraffic.fi/C0252004.jpg;Tie 9 Tienpinta;1280x720;SPECIAL_DIRECTION;http://weathercam.digitraffic.fi/C0252008.jpg;Tie 40 Tienpinta;1280x720;SPECIAL_DIRECTION;http://weathercam.digitraffic.fi/C0252009.jpg
2521;22.174671;60.488183;720;Road 40 Raisio;40;3;101;Tie 40 Piikkiöön;1280x720;INCREASING_DIRECTION;http://weathercam.digitraffic.fi/C0252101.jpg;Tie 40 Naantaliin;1280x720;DECREASING_DIRECTION;http://weathercam.digitraffic.fi/C0252102.jpg;Tie 8 Maskuun;1280x720;CROSSING_ROAD_INCREASING_DIRECTION;http://weathercam.digitraffic.fi/C0252103.jpg;Tie 8 Turkuun;1280x720;CROSSING_ROAD_DECREASING_DIRECTION;http://weathercam.digitraffic.fi/C0252104.jpg;tie 40 Tienpinta;1280x720;SPECIAL_DIRECTION;http://weathercam.digitraffic.fi/C0252109.jpg
2522;22.361207;60.471645;720;Road 40 Ravattula;40;5;45;Tie 40 Helsinkiin;1280x720;INCREASING_DIRECTION;http://weathercam.digitraffic.fi/C0252201.jpg;Tie 40 Naantaliin;1280x720;DECREASING_DIRECTION;http://weathercam.digitraffic.fi/C0252202.jpg;Tie 10 Hämeenlinnaan;1280x720;CROSSING_ROAD_INCREASING_DIRECTION;http://weathercam.digitraffic.fi/C0252203.jpg;Tie 10 Turkuun;1280x720;CROSSING_ROAD_DECREASING_DIRECTION;http://weathercam.digitraffic.fi/C0252204.jpg;Tienpinta;1280x720;SPECIAL_DIRECTION;http://weathercam.digitraffic.fi/C0252209.jpg
2523;21.833519;61.448268;720;Road 2 Pori, Honkaluoto;2;46;6095;Tie 2 Poriin;704x576;INCREASING_DIRECTION;http://weathercam.digitraffic.fi/C0252301.jpg;Tie 2 Helsinkiin;704x576;DECREASING_DIRECTION;http://weathercam.digitraffic.fi/C0252302.jpg;Tie 11 Poriin;704x576;CROSSING_ROAD_INCREASING_DIRECTION;http://weathercam.digitraffic.fi/C0252303.jpg;Tie 11 Tampereelle;704x576;CROSSING_ROAD_DECREASING_DIRECTION;http://weathercam.digitraffic.fi/C0252304.jpg;Tienpinta;704x576;SPECIAL_DIRECTION;http://weathercam.digitraffic.fi/C0252309.jpg
2524;21.803104;61.525521;720;Road 8 Pori, Hyvelä;8;202;227;Vaasaan;704x576;INCREASING_DIRECTION;http://weathercam.digitraffic.fi/C0252401.jpg;Poriin;704x576;DECREASING_DIRECTION;http://weathercam.digitraffic.fi/C0252402.jpg;Tienpinta;704x576;SPECIAL_DIRECTION;http://weathercam.digitraffic.fi/C0252409.jpg
2525;21.569286;61.150155;720;Road 8 Rauma, Luostarinkylä;8;119;2777;Poriin;1280x720;INCREASING_DIRECTION;http://weathercam.digitraffic.fi/C0252501.jpg;Turkuun;1280x720;DECREASING_DIRECTION;http://weathercam.digitraffic.fi/C0252502.jpg;Ramppi/kiertoliittymä;1280x720;CROSSING_ROAD_INCREASING_DIRECTION;http://weathercam.digitraffic.fi/C0252503.jpg;Ramppi/kiertoliittymä2;1280x720;CROSSING_ROAD_DECREASING_DIRECTION;http://weathercam.digitraffic.fi/C0252504.jpg;Tienpinta;1280x720;SPECIAL_DIRECTION;http://weathercam.digitraffic.fi/C0252509.jpg
2526;22.092414;60.219237;720;Road 180 Prostvik;180;8;517;Korppooseen;videoResolutionWidth=1280&videoResolutionHeight=720;INCREASING_DIRECTION;http://weathercam.digitraffic.fi/C0252601.jpg;Kaarinaan;videoResolutionWidth=1280&videoResolutionHeight=720;DECREASING_DIRECTION;http://weathercam.digitraffic.fi/C0252602.jpg;Tienpinta;videoResolutionWidth=1280&videoResolutionHeight=720;SPECIAL_DIRECTION;http://weathercam.digitraffic.fi/C0252609.jpg
2527;22.82271;60.404055;720;Road 110 Paimio, Kurjenmäki;110;29;4010;Turkuun;704x576;INCREASING_DIRECTION;http://weathercam.digitraffic.fi/C0252701.jpg;Saloon;704x576;DECREASING_DIRECTION;http://weathercam.digitraffic.fi/C0252702.jpg;Tienpinta;704x576;SPECIAL_DIRECTION;http://weathercam.digitraffic.fi/C0252709.jpg
2528;23.577745;60.238448;720;Road 186 Salo, Orijärvi;186;7;517;Inkooseen;704x576;INCREASING_DIRECTION;http://weathercam.digitraffic.fi/C0252801.jpg;Saloon;704x576;DECREASING_DIRECTION;http://weathercam.digitraffic.fi/C0252802.jpg;Tienpinta;704x576;SPECIAL_DIRECTION;http://weathercam.digitraffic.fi/C0252809.jpg
2529;22.318686;60.437544;720;Road 1 Turku, Jaani;1;36;52;1280x720;UNKNOWN;http://weathercam.digitraffic.fi/C0252900.jpg
2530;22.326171;60.428912;720;Road 1 Turku, Huhkola;1;35;1489;1280x720;UNKNOWN;http://weathercam.digitraffic.fi/C0253000.jpg
2531;22.348875;60.422324;720;Road 1 Kaarina, Kurkela;1;35;16;1280x720;UNKNOWN;http://weathercam.digitraffic.fi/C0253100.jpg
2532;22.379397;60.423748;720;Road 1 Kaarina, Väntsi;1;33;3725;1280x720;UNKNOWN;http://weathercam.digitraffic.fi/C0253200.jpg
2533;22.445037;60.429799;720;Road 1 Kaarina, Raadelma;1;33;7;1280x720;UNKNOWN;http://weathercam.digitraffic.fi/C0253300.jpg
2534;22.490693;60.443243;720;Road 1 Kaarina, Kirismäki;1;32;43;Turkuun;1280x720;INCREASING_DIRECTION;http://weathercam.digitraffic.fi/C0253401.jpg
2535;22.594127;60.442428;720;Road 1 Kaarina, Villisi;1;31;440;1280x720;UNKNOWN;http://weathercam.digitraffic.fi/C0253500.jpg
2536;22.671954;60.424733;720;Road 1 Paimio, Valkoja;1;30;6;1280x720;UNKNOWN;http://weathercam.digitraffic.fi/C0253600.jpg
2537;22.723271;60.42785;720;Road 1 Paimio, Vista;1;29;31;1280x720;UNKNOWN;http://weathercam.digitraffic.fi/C0253700.jpg
2538;22.927452;60.43307;720;Road 1 Salo, Hajala;1;26;6729;1280x720;UNKNOWN;http://weathercam.digitraffic.fi/C0253800.jpg
2539;23.046429;60.426922;720;Road 1 Salo, Halikko;1;26;33;1280x720;UNKNOWN;http://weathercam.digitraffic.fi/C0253900.jpg
2540;23.165136;60.41783;720;Road 1 Salo, Pappila;1;24;36;1280x720;UNKNOWN;http://weathercam.digitraffic.fi/C0254000.jpg
2541;23.134922;60.418295;720;Road 1 Salo, Isokylä;1;24;1712;1280x720;UNKNOWN;http://weathercam.digitraffic.fi/C0254100.jpg
2542;23.157422;60.418497;720;Road 1 Salo, Isokylä tunnel, east;1;24;465;1280x720;UNKNOWN;http://weathercam.digitraffic.fi/C0254200.jpg
2543;23.146128;60.418845;720;Road 1 Salo, Isokylä tunnel, west;1;24;1088;1280x720;UNKNOWN;http://weathercam.digitraffic.fi/C0254300.jpg
2545;23.208104;60.920967;720;Road 9 Loimaa, Korpi;9;117;644;Tampereelle;704x576;INCREASING_DIRECTION;http://weathercam.digitraffic.fi/C0254501.jpg;Turkuun;704x576;DECREASING_DIRECTION;http://weathercam.digitraffic.fi/C0254502.jpg;Tienpinta;704x576;SPECIAL_DIRECTION;http://weathercam.digitraffic.fi/C0254509.jpg
2546;22.39439;60.876875;720;Road 204 Pöytyä, Yläne;204;6;5831;Euraan;1280x720;INCREASING_DIRECTION;http://weathercam.digitraffic.fi/C0254601.jpg;Lietoon;1280x720;DECREASING_DIRECTION;http://weathercam.digitraffic.fi/C0254602.jpg;Tienpinta;1280x720;SPECIAL_DIRECTION;http://weathercam.digitraffic.fi/C0254609.jpg
2550;22.358572;60.367144;720;Road 180 Kaarina, Kirjalansalmi;180;1;7180;Silta;704x576;UNKNOWN;http://weathercam.digitraffic.fi/C0255000.jpg;Kaarinaan;704x576;INCREASING_DIRECTION;http://weathercam.digitraffic.fi/C0255001.jpg;Paraisille;704x576;DECREASING_DIRECTION;http://weathercam.digitraffic.fi/C0255002.jpg
2551;21.660864;60.890499;720;Road 8 Laitila, Palttila;8;112;2673;Vaasaan;704x576;INCREASING_DIRECTION;http://weathercam.digitraffic.fi/C0255101.jpg;Turkuun;704x576;DECREASING_DIRECTION;http://weathercam.digitraffic.fi/C0255102.jpg;Tienpinta;704x576;SPECIAL_DIRECTION;http://weathercam.digitraffic.fi/C0255109.jpg
2562;23.211237;60.407366;720;Road 1 Salo, Haukkala;1;22;7253;1280x720;UNKNOWN;http://weathercam.digitraffic.fi/C0256200.jpg
2563;21.983758;60.459147;720;Road 189 Naantali, Luonnonmaa;189;4;1587;Rymättylään;1280x720;INCREASING_DIRECTION;http://weathercam.digitraffic.fi/C0256301.jpg;Naantaliin;1280x720;DECREASING_DIRECTION;http://weathercam.digitraffic.fi/C0256302.jpg;Tienpinta;1280x720;SPECIAL_DIRECTION;http://weathercam.digitraffic.fi/C0256309.jpg
2564;22.563043;60.445487;720;Road 1 Kaarina, Makarla;1;31;2193;Turkuun;1280x720;UNKNOWN;http://weathercam.digitraffic.fi/C0256400.jpg
2565;22.820274;60.426842;720;Road 1 Paimio, Pitkäporras;1;27;6030;Turkuun;1280x720;UNKNOWN;http://weathercam.digitraffic.fi/C0256500.jpg
2569;22.740708;60.163807;720;Road 183 Kemiönsaari, Engelsby;183;5;3070;Taalintehtaalle;1280x720;INCREASING_DIRECTION;http://weathercam.digitraffic.fi/C0256901.jpg;Perniöön;1280x720;DECREASING_DIRECTION;http://weathercam.digitraffic.fi/C0256902.jpg;Tienpinta;1280x720;SPECIAL_DIRECTION;http://weathercam.digitraffic.fi/C0256909.jpg
2570;21.78628;60.169432;600;Road 180 Parainen, Nauvo, Galls;180;11;4750;Turkuun;1280x720;DECREASING_DIRECTION;http://weathercam.digitraffic.fi/C0257002.jpg
2571;22.485968;60.044041;600;Road 183 Kemiönsaari, Taallintehdas;183;9;3400;Perniöön;1280x720;DECREASING_DIRECTION;http://weathercam.digitraffic.fi/C0257102.jpg
2572;23.147451;60.172839;600;Road 52 Salo, Perniö;52;7;635;Saloon;1280x720;INCREASING_DIRECTION;http://weathercam.digitraffic.fi/C0257201.jpg
3502;26.455241;60.491874;720;Road 7 Ahvenkoski;170;22;383;Loviisaan;704x576;DECREASING_DIRECTION;http://weathercam.digitraffic.fi/C0350202.jpg
3504;26.819304;60.886259;720;Road 6 Kouvola, Utti_YPS;6;202;2955;Lappeenrantaan;1280x720;INCREASING_DIRECTION;http://weathercam.digitraffic.fi/C0350401.jpg;Kouvolaan;1280x720;DECREASING_DIRECTION;http://weathercam.digitraffic.fi/C0350402.jpg;Tienpinta;1280x720;SPECIAL_DIRECTION;http://weathercam.digitraffic.fi/C0350409.jpg
3505;27.264606;61.453342;720;Road 13 Ostolahti;13;225;5497;Lappeenrantaan;1280x720;INCREASING_DIRECTION;http://weathercam.digitraffic.fi/C0350501.jpg;Mikkeliin;1280x720;DECREASING_DIRECTION;http://weathercam.digitraffic.fi/C0350502.jpg;Tie 15 Kouvolaan;1280x720;CROSSING_ROAD_DECREASING_DIRECTION;http://weathercam.digitraffic.fi/C0350504.jpg;Tienpinta;1280x720;SPECIAL_DIRECTION;http://weathercam.digitraffic.fi/C0350509.jpg
3506;26.602185;60.872855;720;Road 6 Kouvola, Keltti;6;129;52;Lappeenrantaan;1280x720;INCREASING_DIRECTION;http://weathercam.digitraffic.fi/C0350601.jpg;Helsinkiin;1280x720;DECREASING_DIRECTION;http://weathercam.digitraffic.fi/C0350602.jpg;Tie 365 Kuusankoskelle;1280x720;CROSSING_ROAD_INCREASING_DIRECTION;http://weathercam.digitraffic.fi/C0350603.jpg;Tie 12 Lahteen;1280x720;CROSSING_ROAD_DECREASING_DIRECTION;http://weathercam.digitraffic.fi/C0350604.jpg;Tie 12 tienpinta;1280x720;SPECIAL_DIRECTION;http://weathercam.digitraffic.fi/C0350609.jpg
3507;28.644309;62.515174;720;Road 23 Heinävesi, Karvio;23;411;5300;Varkauteen;1280x720;INCREASING_DIRECTION;http://weathercam.digitraffic.fi/C0350701.jpg;Joensuuhun;1280x720;DECREASING_DIRECTION;http://weathercam.digitraffic.fi/C0350702.jpg;Tie 85422 Lepikkomäkeen;1280x720;CROSSING_ROAD_INCREASING_DIRECTION;http://weathercam.digitraffic.fi/C0350703.jpg;Tienpinta;1280x720;SPECIAL_DIRECTION;http://weathercam.digitraffic.fi/C0350709.jpg
3509;27.615326;61.813117;710;Road 5 Juva, Kielkallio;5;134;1451;Varkauteen;1280x720;INCREASING_DIRECTION;http://weathercam.digitraffic.fi/C0350901.jpg;Mikkeliin;1280x720;DECREASING_DIRECTION;http://weathercam.digitraffic.fi/C0350902.jpg;Tienpinta;1280x720;SPECIAL_DIRECTION;http://weathercam.digitraffic.fi/C0350909.jpg
3510;28.510648;60.960136;300;Road 13 Nuijamaa;13;241;5705;Lappeenrantaan;704x576;DECREASING_DIRECTION;http://weathercam.digitraffic.fi/C0351002.jpg
3512;27.850404;60.604957;300;Road 7 Virolahti, Vaalimaa;7;41;1394;Kuva raja-asemalta itään;704x576;INCREASING_DIRECTION;http://weathercam.digitraffic.fi/C0351201.jpg;Kuva raja-asemalta länteen;704x576;DECREASING_DIRECTION;http://weathercam.digitraffic.fi/C0351202.jpg
3518;28.905753;61.869682;720;Road 14 Savonlinna, Kyrönsalmi;14;13;8824;Lapeenranta;1280x720;INCREASING_DIRECTION;http://weathercam.digitraffic.fi/C0351801.jpg;Savonlinna;1280x720;DECREASING_DIRECTION;http://weathercam.digitraffic.fi/C0351802.jpg;Maisema;1280x720;SPECIAL_DIRECTION;http://weathercam.digitraffic.fi/C0351807.jpg;Olavinlinna;1920x1080;SPECIAL_DIRECTION;http://weathercam.digitraffic.fi/C0351808.jpg
3519;26.842825;60.748653;720;Road 15 Kouvola, Keltakangas;15;6;9;Kouvolaan;1280x720;INCREASING_DIRECTION;http://weathercam.digitraffic.fi/C0351901.jpg;Kotkaan;1280x720;DECREASING_DIRECTION;http://weathercam.digitraffic.fi/C0351902.jpg;Tie 353 Myllykoskelle;1280x720;CROSSING_ROAD_INCREASING_DIRECTION;http://weathercam.digitraffic.fi/C0351903.jpg;Tie 371 Matarojalle;1280x720;CROSSING_ROAD_DECREASING_DIRECTION;http://weathercam.digitraffic.fi/C0351904.jpg;Tienpinta;1280x720;SPECIAL_DIRECTION;http://weathercam.digitraffic.fi/C0351909.jpg
3522;29.481726;61.603414;720;Road 6 Parikkala, Särkisalmi;6;324;0;Joensuuhun;1280x720;INCREASING_DIRECTION;http://weathercam.digitraffic.fi/C0352201.jpg;Imatralle;1280x720;DECREASING_DIRECTION;http://weathercam.digitraffic.fi/C0352202.jpg;Tie 14 Savonlinnaan;1280x720;CROSSING_ROAD_DECREASING_DIRECTION;http://weathercam.digitraffic.fi/C0352204.jpg;Tienpinta;1280x720;SPECIAL_DIRECTION;http://weathercam.digitraffic.fi/C0352209.jpg
3523;26.679036;61.441703;720;Road 5 Mäntyharju, Vihantasalm;5;117;14023;Mikkeliin;1280x720;INCREASING_DIRECTION;http://weathercam.digitraffic.fi/C0352301.jpg;Lahteen;1280x720;DECREASING_DIRECTION;http://weathercam.digitraffic.fi/C0352302.jpg;Tienpinta;1280x720;SPECIAL_DIRECTION;http://weathercam.digitraffic.fi/C0352309.jpg
3524;26.921338;60.463908;720;Road 15 Kotka, Kotkansaari;15;1;1771;Kouvolaan;1280x720;INCREASING_DIRECTION;http://weathercam.digitraffic.fi/C0352401.jpg;Kotkaan;1280x720;DECREASING_DIRECTION;http://weathercam.digitraffic.fi/C0352402.jpg;Merimaisema;1280x720;SPECIAL_DIRECTION;http://weathercam.digitraffic.fi/C0352408.jpg;Tienpinta;1280x720;SPECIAL_DIRECTION;http://weathercam.digitraffic.fi/C0352409.jpg
3525;28.856199;61.229996;720;Road 6 Imatra, Rönkkä;6;311;1074;Joensuuhun;1280x720;INCREASING_DIRECTION;http://weathercam.digitraffic.fi/C0352501.jpg;Lappeenrantaan;1280x720;DECREASING_DIRECTION;http://weathercam.digitraffic.fi/C0352502.jpg;Tienpinta;1280x720;SPECIAL_DIRECTION;http://weathercam.digitraffic.fi/C0352509.jpg
3527;27.197605;62.011742;720;Road 72 Haukivuori;72;9;1898;Pieksämäelle;1280x720;INCREASING_DIRECTION;http://weathercam.digitraffic.fi/C0352701.jpg;Mikkeliin;1280x720;DECREASING_DIRECTION;http://weathercam.digitraffic.fi/C0352702.jpg;Tienpinta;1280x720;SPECIAL_DIRECTION;http://weathercam.digitraffic.fi/C0352709.jpg
3528;26.586723;61.016126;720;Road 46 Kouvola, Jaala;46;5;431;Heinolaan;1280x720;INCREASING_DIRECTION;http://weathercam.digitraffic.fi/C0352801.jpg;Kouvolaan;1280x720;DECREASING_DIRECTION;http://weathercam.digitraffic.fi/C0352802.jpg;Tienpinta;1280x720;SPECIAL_DIRECTION;http://weathercam.digitraffic.fi/C0352809.jpg
3529;28.374158;61.095702;720;Road 6 Lappeenranta, Muukko;6;304;1868;Imatralle;1280x720;INCREASING_DIRECTION;http://weathercam.digitraffic.fi/C0352901.jpg;Lappeenrantaan;1280x720;DECREASING_DIRECTION;http://weathercam.digitraffic.fi/C0352902.jpg;Tienpinta;1280x720;SPECIAL_DIRECTION;http://weathercam.digitraffic.fi/C0352909.jpg
3530;27.305027;60.570267;300;Road 7 Hamina, Lelu;7;35;7150;Haminaan;1280x720;UNKNOWN;http://weathercam.digitraffic.fi/C0353000.jpg
3531;26.765977;60.885055;720;Road 15 Kouvola, Käyrälampi;15;8;33;Heinolaan;1280x720;INCREASING_DIRECTION;http://weathercam.digitraffic.fi/C0353101.jpg;Kotkaan;1280x720;DECREASING_DIRECTION;http://weathercam.digitraffic.fi/C0353102.jpg;Tie 6 Lappeenrantaan;1280x720;CROSSING_ROAD_INCREASING_DIRECTION;http://weathercam.digitraffic.fi/C0353103.jpg;Tie 6 Helsinkiin;1280x720;CROSSING_ROAD_DECREASING_DIRECTION;http://weathercam.digitraffic.fi/C0353104.jpg;Tienpinta;1280x720;SPECIAL_DIRECTION;http://weathercam.digitraffic.fi/C0353109.jpg
3532;26.422924;61.416341;720;Road 5 Pertunmaa, Kuortti;5;116;9433;Mikkeliin;1280x720;INCREASING_DIRECTION;http://weathercam.digitraffic.fi/C0353201.jpg;Lahteen;1280x720;DECREASING_DIRECTION;http://weathercam.digitraffic.fi/C0353202.jpg;Tienpinta;1280x720;SPECIAL_DIRECTION;http://weathercam.digitraffic.fi/C0353209.jpg
3533;26.305941;61.159432;720;Road 46 Kouvola, Uimila;46;10;5870;Heinolaan;1280x720;INCREASING_DIRECTION;http://weathercam.digitraffic.fi/C0353301.jpg;Kouvolaan;1280x720;DECREASING_DIRECTION;http://weathercam.digitraffic.fi/C0353302.jpg;Tienpinta;1280x720;SPECIAL_DIRECTION;http://weathercam.digitraffic.fi/C0353309.jpg
3534;27.622619;61.588222;710;Road 62 Mikkeli, Anttola;62;4;6232;Imatralle;704x576;INCREASING_DIRECTION;http://weathercam.digitraffic.fi/C0353401.jpg;Mikkeliin;704x576;DECREASING_DIRECTION;http://weathercam.digitraffic.fi/C0353402.jpg;Tienpinta;704x576;SPECIAL_DIRECTION;http://weathercam.digitraffic.fi/C0353409.jpg
3536;28.457891;60.99184;300;Road 13 5.0km to border;13;241;1500;Nuijamaalle;704x576;INCREASING_DIRECTION;http://weathercam.digitraffic.fi/C0353601.jpg;Lappeenrantaan;704x576;DECREASING_DIRECTION;http://weathercam.digitraffic.fi/C0353602.jpg
3537;27.455254;60.567155;300;Road 170 Virolahti, Uski;170;38;3549;Itään;704x576;INCREASING_DIRECTION;http://weathercam.digitraffic.fi/C0353701.jpg;Länteen;704x576;DECREASING_DIRECTION;http://weathercam.digitraffic.fi/C0353702.jpg
3538;27.76506;60.593476;300;Road 170 Hämeenkylä crossing;170;42;3028;Venäjän rajalle;1280x720;INCREASING_DIRECTION;http://weathercam.digitraffic.fi/C0353801.jpg;Haminaan;1280x720;DECREASING_DIRECTION;http://weathercam.digitraffic.fi/C0353802.jpg;Tienpinta;1280x720;SPECIAL_DIRECTION;http://weathercam.digitraffic.fi/C0353809.jpg
3539;27.80734;60.599944;300;Road 170 Kurkelantie crossing;170;42;5508;Venäjälle;704x576;INCREASING_DIRECTION;http://weathercam.digitraffic.fi/C0353901.jpg;Haminaan;704x576;DECREASING_DIRECTION;http://weathercam.digitraffic.fi/C0353902.jpg;Tienpinta;704x576;SPECIAL_DIRECTION;http://weathercam.digitraffic.fi/C0353909.jpg
3540;27.830914;60.600608;300;Road 7 Lappeenrannantie cross;7;41;376;Venäjälle;1280x720;INCREASING_DIRECTION;http://weathercam.digitraffic.fi/C0354001.jpg;Haminaan;1280x720;DECREASING_DIRECTION;http://weathercam.digitraffic.fi/C0354002.jpg;Tienpinta;1280x720;SPECIAL_DIRECTION;http://weathercam.digitraffic.fi/C0354009.jpg
3541;27.841889;60.602694;300;Road 7 Border, truckpark;7;41;814;Parkkialue;704x576;UNKNOWN;http://weathercam.digitraffic.fi/C0354100.jpg
3542;28.468155;60.988298;300;Road 13 4.5km to border;13;241;1000;Länteen;704x576;DECREASING_DIRECTION;http://weathercam.digitraffic.fi/C0354202.jpg
3543;28.477902;60.984034;300;Road 13 4.0km to border;13;241;1550;Rajalle;1280x720;INCREASING_DIRECTION;http://weathercam.digitraffic.fi/C0354301.jpg;Lappeenrantaan;1280x720;DECREASING_DIRECTION;http://weathercam.digitraffic.fi/C0354302.jpg;Tienpinta;1280x720;SPECIAL_DIRECTION;http://weathercam.digitraffic.fi/C0354309.jpg
3544;28.496322;60.974816;300;Road 13 2.5km to border;13;241;3800;Itään;704x576;INCREASING_DIRECTION;http://weathercam.digitraffic.fi/C0354401.jpg;Länteen;704x576;DECREASING_DIRECTION;http://weathercam.digitraffic.fi/C0354402.jpg;Tienpinta;704x576;SPECIAL_DIRECTION;http://weathercam.digitraffic.fi/C0354409.jpg
3545;28.503505;60.965729;300;Road 13 Border, barrier;13;241;4950;Rajapuomi;704x576;UNKNOWN;http://weathercam.digitraffic.fi/C0354500.jpg
3546;28.503124;60.962734;300;Road 13 Border, truckpark 1;13;241;5500;Parkkialue;704x576;UNKNOWN;http://weathercam.digitraffic.fi/C0354600.jpg
3547;28.507212;60.959734;300;Road 13 Border, truckpark 2;13;241;5600;Parkkialue;704x576;UNKNOWN;http://weathercam.digitraffic.fi/C0354700.jpg
3548;26.440398;60.736185;720;Road 6 Kouvola, Elimäki;6;126;715;Kouvolaan;704x576;INCREASING_DIRECTION;http://weathercam.digitraffic.fi/C0354801.jpg;Helsinkiin;704x576;DECREASING_DIRECTION;http://weathercam.digitraffic.fi/C0354802.jpg;Tienpinta;704x576;SPECIAL_DIRECTION;http://weathercam.digitraffic.fi/C0354809.jpg
3550;27.854076;60.605696;720;Road 7 Border, truckpark;7;42;1427;704x576;CROSSING_ROAD_INCREASING_DIRECTION;http://weathercam.digitraffic.fi/C0355003.jpg
3551;27.851336;60.604987;720;Road 7 Border, truckpark;7;42;1427;itään;704x576;CROSSING_ROAD_DECREASING_DIRECTION;http://weathercam.digitraffic.fi/C0355104.jpg
3552;27.245648;60.556257;720;Road 170 Hamina, Tallinmäki;170;35;3616;Vaalimaalle;1280x720;INCREASING_DIRECTION;http://weathercam.digitraffic.fi/C0355201.jpg;Haminaan;1280x720;DECREASING_DIRECTION;http://weathercam.digitraffic.fi/C0355202.jpg;Tienpinta;1280x720;SPECIAL_DIRECTION;http://weathercam.digitraffic.fi/C0355209.jpg
3553;27.39383;60.563794;720;Road 170 Virolahti, Kattilainen;170;38;767;Venäjälle;704x576;INCREASING_DIRECTION;http://weathercam.digitraffic.fi/C0355301.jpg;Haminaan;704x576;DECREASING_DIRECTION;http://weathercam.digitraffic.fi/C0355302.jpg;Tienpinta;704x576;SPECIAL_DIRECTION;http://weathercam.digitraffic.fi/C0355309.jpg
3554;27.548953;60.568751;720;Road 170 Virolahti, Haavisto;170;39;3908;Itään;704x576;INCREASING_DIRECTION;http://weathercam.digitraffic.fi/C0355401.jpg;Länteen;704x576;DECREASING_DIRECTION;http://weathercam.digitraffic.fi/C0355402.jpg
3555;27.638443;60.57199;720;Road 170 Virolahti, Vaahterikonkangas;170;40;4719;Itään;704x576;INCREASING_DIRECTION;http://weathercam.digitraffic.fi/C0355501.jpg;Länteen;704x576;DECREASING_DIRECTION;http://weathercam.digitraffic.fi/C0355502.jpg
3556;27.705267;60.587565;720;Road 170 Virolahti, Virojoki;170;41;1455;Itään;704x576;INCREASING_DIRECTION;http://weathercam.digitraffic.fi/C0355601.jpg;Länteen;704x576;DECREASING_DIRECTION;http://weathercam.digitraffic.fi/C0355602.jpg
3557;27.726683;60.586974;300;Road 170 Sports field crossing;170;42;774;Vaalimaalle;704x576;INCREASING_DIRECTION;http://weathercam.digitraffic.fi/C0355701.jpg;Haminaan;704x576;DECREASING_DIRECTION;http://weathercam.digitraffic.fi/C0355702.jpg;Tienpinta;704x576;SPECIAL_DIRECTION;http://weathercam.digitraffic.fi/C0355709.jpg
3558;28.307574;61.071041;720;Road 6 Lappeenranta, Saimaa channel;6;303;1045;Imatralle;1280x720;INCREASING_DIRECTION;http://weathercam.digitraffic.fi/C0355801.jpg;Lappeenrantaan;1280x720;DECREASING_DIRECTION;http://weathercam.digitraffic.fi/C0355802.jpg;Tienpinta;1280x720;SPECIAL_DIRECTION;http://weathercam.digitraffic.fi/C0355809.jpg
3559;26.702592;60.880279;720;Road 6 Kouvola, Kotiharju;6;201;0;Lappeenrantaan;1280x720;INCREASING_DIRECTION;http://weathercam.digitraffic.fi/C0355901.jpg;Helsinkiin;1280x720;DECREASING_DIRECTION;http://weathercam.digitraffic.fi/C0355902.jpg;Tienpinta;1280x720;SPECIAL_DIRECTION;http://weathercam.digitraffic.fi/C0355909.jpg
3560;28.770943;61.344408;720;Road 62 Virmutjoki;62;22;250;Ruokolahdelle;704x576;INCREASING_DIRECTION;http://weathercam.digitraffic.fi/C0356001.jpg;Puumalaan;704x576;DECREASING_DIRECTION;http://weathercam.digitraffic.fi/C0356002.jpg;Tienpinta;704x576;SPECIAL_DIRECTION;http://weathercam.digitraffic.fi/C0356009.jpg
3561;29.370411;61.766037;720;Road 14 Savonlinna, Punkaharju;14;22;6081;Parikkalaan;1280x720;INCREASING_DIRECTION;http://weathercam.digitraffic.fi/C0356101.jpg;Savonlinnaan;1280x720;DECREASING_DIRECTION;http://weathercam.digitraffic.fi/C0356102.jpg;Järvimaisema;1280x720;SPECIAL_DIRECTION;http://weathercam.digitraffic.fi/C0356105.jpg;Tienpinta;1280x720;SPECIAL_DIRECTION;http://weathercam.digitraffic.fi/C0356109.jpg
3562;27.887845;62.224729;720;Road 5 Joroinen, Tahkoranta;5;144;0;Varkauteen;1280x720;INCREASING_DIRECTION;http://weathercam.digitraffic.fi/C0356201.jpg;Mikkeliin;1280x720;DECREASING_DIRECTION;http://weathercam.digitraffic.fi/C0356202.jpg;Tie 464 Rantasalmelle;1280x720;CROSSING_ROAD_INCREASING_DIRECTION;http://weathercam.digitraffic.fi/C0356203.jpg;Tie 4558 länteen;1280x720;CROSSING_ROAD_DECREASING_DIRECTION;http://weathercam.digitraffic.fi/C0356204.jpg;Tienpinta;1280x720;SPECIAL_DIRECTION;http://weathercam.digitraffic.fi/C0356209.jpg
3563;27.405954;62.290447;720;Road 23 Pieksämäki, Siikamäki;23;314;2636;Varkauteen;704x576;INCREASING_DIRECTION;http://weathercam.digitraffic.fi/C0356301.jpg;Pieksämäelle;704x576;DECREASING_DIRECTION;http://weathercam.digitraffic.fi/C0356302.jpg;Tienpinta;704x576;SPECIAL_DIRECTION;http://weathercam.digitraffic.fi/C0356309.jpg
3564;27.16245;61.18898;720;Road 15 Laivolahti;15;19;1332;Mikkeliin;1280x720;INCREASING_DIRECTION;http://weathercam.digitraffic.fi/C0356401.jpg;Kouvolaan;1280x720;DECREASING_DIRECTION;http://weathercam.digitraffic.fi/C0356402.jpg;Tienpinta;1280x720;SPECIAL_DIRECTION;http://weathercam.digitraffic.fi/C0356409.jpg
3565;28.395891;61.022307;720;Road 13 Lokkaa straight;13;240;2730;Rajalle;704x576;INCREASING_DIRECTION;http://weathercam.digitraffic.fi/C0356501.jpg;Lappeenrantaan;704x576;DECREASING_DIRECTION;http://weathercam.digitraffic.fi/C0356502.jpg;Tienpinta;704x576;SPECIAL_DIRECTION;http://weathercam.digitraffic.fi/C0356509.jpg
3566;28.188913;61.041502;600;Road 6 Lappeenranta, Reijola;6;301;680;Imatralle;704x576;INCREASING_DIRECTION;http://weathercam.digitraffic.fi/C0356601.jpg;Kouvolaan;704x576;DECREASING_DIRECTION;http://weathercam.digitraffic.fi/C0356602.jpg;Tienpinta;704x576;SPECIAL_DIRECTION;http://weathercam.digitraffic.fi/C0356609.jpg
3567;28.808479;61.151266;300;Road 62 Imatra, Teppanala;62;25;2018;Rajalle;1280x720;INCREASING_DIRECTION;http://weathercam.digitraffic.fi/C0356701.jpg;Imatralle;1280x720;DECREASING_DIRECTION;http://weathercam.digitraffic.fi/C0356702.jpg;Tienpinta;1280x720;SPECIAL_DIRECTION;http://weathercam.digitraffic.fi/C0356709.jpg
3568;28.405359;61.101621;720;Road 6 Lappeenranta, Muukko straight;6;304;3678;Imatralle;704x576;INCREASING_DIRECTION;http://weathercam.digitraffic.fi/C0356801.jpg;Lappeenrantaan;704x576;DECREASING_DIRECTION;http://weathercam.digitraffic.fi/C0356802.jpg;Tienpinta;704x576;SPECIAL_DIRECTION;http://weathercam.digitraffic.fi/C0356809.jpg
3570;28.359564;61.04087;720;Road 13 Karhusjärvi;13;239;4750;Nuijamaalle;704x576;INCREASING_DIRECTION;http://weathercam.digitraffic.fi/C0357001.jpg;Lappeenrantaan;704x576;DECREASING_DIRECTION;http://weathercam.digitraffic.fi/C0357002.jpg;Tienpinta;704x576;SPECIAL_DIRECTION;http://weathercam.digitraffic.fi/C0357009.jpg
3571;28.041128;61.026327;720;Road 6 Lappeenranta, Selkäharju;6;215;65;Lappeenrantaan;1280x720;INCREASING_DIRECTION;http://weathercam.digitraffic.fi/C0357101.jpg;Kouvolaan;1280x720;DECREASING_DIRECTION;http://weathercam.digitraffic.fi/C0357102.jpg;Tienpinta;1280x720;SPECIAL_DIRECTION;http://weathercam.digitraffic.fi/C0357109.jpg
3572;28.115215;61.034965;720;Road 6 Lappeenranta, Lavola;6;216;12;Lappeenrantaan;704x576;INCREASING_DIRECTION;http://weathercam.digitraffic.fi/C0357201.jpg;Kouvolaan;704x576;DECREASING_DIRECTION;http://weathercam.digitraffic.fi/C0357202.jpg;Tienpinta;704x576;SPECIAL_DIRECTION;http://weathercam.digitraffic.fi/C0357209.jpg
3573;28.211606;61.044721;720;Road 6 Lappeenranta, Viipurintie;6;301;1974;Imatralle;1280x720;INCREASING_DIRECTION;http://weathercam.digitraffic.fi/C0357301.jpg;Kouvolaan;1280x720;DECREASING_DIRECTION;http://weathercam.digitraffic.fi/C0357302.jpg;Tienpinta;1280x720;SPECIAL_DIRECTION;http://weathercam.digitraffic.fi/C0357309.jpg
3574;28.293074;61.066323;720;Road 6 Lappeenranta, Nuijamaantie;6;302;5064;Imatralle;1280x720;INCREASING_DIRECTION;http://weathercam.digitraffic.fi/C0357401.jpg;Kouvolaan;1280x720;DECREASING_DIRECTION;http://weathercam.digitraffic.fi/C0357402.jpg
3575;27.667124;61.191592;720;Road 13 Savitaipale;13;234;27;Lappeenrantaan;1280x720;INCREASING_DIRECTION;http://weathercam.digitraffic.fi/C0357501.jpg;Mikkeliin;1280x720;DECREASING_DIRECTION;http://weathercam.digitraffic.fi/C0357502.jpg;Tienpinta;1280x720;SPECIAL_DIRECTION;http://weathercam.digitraffic.fi/C0357509.jpg
3576;27.347935;60.75853;720;Road 26 Hamina, Pyhältö;26;7;1507;Luumäelle;1280x720;INCREASING_DIRECTION;http://weathercam.digitraffic.fi/C0357601.jpg;Haminaan;1280x720;DECREASING_DIRECTION;http://weathercam.digitraffic.fi/C0357602.jpg;Tienpinta;1280x720;SPECIAL_DIRECTION;http://weathercam.digitraffic.fi/C0357609.jpg
3577;28.482966;61.116802;720;Road 6 Lappeenranta, Joutseno;6;305;1733;Imatralle;704x576;INCREASING_DIRECTION;http://weathercam.digitraffic.fi/C0357701.jpg;Lappeenrantaan;704x576;DECREASING_DIRECTION;http://weathercam.digitraffic.fi/C0357702.jpg
3578;28.700453;61.172872;720;Road 6 Lappeenranta, Vesivalo;6;308;5;Imatralle;1280x720;INCREASING_DIRECTION;http://weathercam.digitraffic.fi/C0357801.jpg;Lappeenrantaan;1280x720;DECREASING_DIRECTION;http://weathercam.digitraffic.fi/C0357802.jpg;Tienpinta;1280x720;SPECIAL_DIRECTION;http://weathercam.digitraffic.fi/C0357809.jpg
3579;29.340937;61.419383;720;Road 6 Rautjärvi, Simpele;6;318;4989;Joensuuhun;1280x720;INCREASING_DIRECTION;http://weathercam.digitraffic.fi/C0357901.jpg;Imatralle;1280x720;DECREASING_DIRECTION;http://weathercam.digitraffic.fi/C0357902.jpg;Tienpinta;1280x720;SPECIAL_DIRECTION;http://weathercam.digitraffic.fi/C0357909.jpg
3580;28.010568;60.789628;720;Road 387 Lappeenranta, Ylämaa;387;7;42;Vaalimaalle;1280x720;INCREASING_DIRECTION;http://weathercam.digitraffic.fi/C0358001.jpg;Lappeenrantaan;1280x720;DECREASING_DIRECTION;http://weathercam.digitraffic.fi/C0358002.jpg;Tienpinta;1280x720;SPECIAL_DIRECTION;http://weathercam.digitraffic.fi/C0358009.jpg
3581;27.216275;60.630542;720;Road 26 Hamina, Myllykylä;26;4;2192;Taavettiin;1280x720;INCREASING_DIRECTION;http://weathercam.digitraffic.fi/C0358101.jpg;Haminaan;1280x720;DECREASING_DIRECTION;http://weathercam.digitraffic.fi/C0358102.jpg;Tienpinta;1280x720;SPECIAL_DIRECTION;http://weathercam.digitraffic.fi/C0358109.jpg
3584;26.918987;60.509958;720;Road 7 Kotka, Jumalniemi;7;29;1298;Kotkaan;704x576;INCREASING_DIRECTION;http://weathercam.digitraffic.fi/C0358401.jpg
3585;26.490466;60.485486;720;Road 7 Ahvenkoski;7;24;2;Helsinkiin;704x576;INCREASING_DIRECTION;http://weathercam.digitraffic.fi/C0358501.jpg
3586;26.563585;60.487631;720;Road 7 Pyhtää, Puutaksenpelto;7;24;4045;704x576;INCREASING_DIRECTION;http://weathercam.digitraffic.fi/C0358601.jpg
3587;26.179105;60.913263;720;Road 12 Iitti, Mankala;12;228;1250;Kouvolaan;800x600;INCREASING_DIRECTION;http://weathercam.digitraffic.fi/C0358701.jpg
3588;26.921476;60.624956;720;Road 15 Kouvola, Juurikorpi;15;3;3000;Kotkaan;800x600;DECREASING_DIRECTION;http://weathercam.digitraffic.fi/C0358802.jpg
3589;27.059063;61.074285;720;Road 15 Kouvola, Tuohikotti;15;15;705;Mikkeliin;800x600;INCREASING_DIRECTION;http://weathercam.digitraffic.fi/C0358901.jpg
3590;26.491219;60.489682;720;;170;22;2479;Kotkaan;704x576;INCREASING_DIRECTION;http://weathercam.digitraffic.fi/C0359001.jpg
3591;26.742226;60.503413;720;;7;25;10064;Kotkaan;704x576;INCREASING_DIRECTION;http://weathercam.digitraffic.fi/C0359101.jpg
3592;26.823697;60.496713;720;;7;26;4702;Kotkaan;0x0;INCREASING_DIRECTION;http://weathercam.digitraffic.fi/C0359201.jpg
3593;26.87074;60.498751;720;;7;27;2629;Kotkaan;0x0;INCREASING_DIRECTION;http://weathercam.digitraffic.fi/C0359301.jpg
3594;26.898172;60.504557;720;;7;28;1597;Kotkaan;0x0;INCREASING_DIRECTION;http://weathercam.digitraffic.fi/C0359401.jpg
3595;26.948394;60.521887;720;;7;29;3460;Kotkaan;704x576;INCREASING_DIRECTION;http://weathercam.digitraffic.fi/C0359501.jpg
3596;26.960569;60.531597;720;;7;30;1264;Haminaan;704x576;INCREASING_DIRECTION;http://weathercam.digitraffic.fi/C0359601.jpg
3597;26.97565;60.540068;720;;7;30;2521;Kotkaan;704x576;INCREASING_DIRECTION;http://weathercam.digitraffic.fi/C0359701.jpg
3598;27.010504;60.557757;720;;7;31;2747;0x0;UNKNOWN;http://weathercam.digitraffic.fi/C0359800.jpg
3599;27.097308;60.569807;720;;7;32;5084;0x0;UNKNOWN;http://weathercam.digitraffic.fi/C0359900.jpg
3600;27.133939;60.574004;720;;7;32;7203;0x0;UNKNOWN;http://weathercam.digitraffic.fi/C0360000.jpg
3601;27.150738;60.584788;720;;7;33;1495;0x0;UNKNOWN;http://weathercam.digitraffic.fi/C0360100.jpg
3602;27.153503;60.58667;720;;7;34;10;0x0;UNKNOWN;http://weathercam.digitraffic.fi/C0360200.jpg
3603;27.168727;60.593906;720;;7;34;1156;0x0;UNKNOWN;http://weathercam.digitraffic.fi/C0360300.jpg
3604;27.167224;60.592813;720;;7;34;1025;Tie 7, Husula;0x0;UNKNOWN;http://weathercam.digitraffic.fi/C0360400.jpg
3613;27.178477;60.59744;720;;7;34;1837;Tie 7, Husula;0x0;UNKNOWN;http://weathercam.digitraffic.fi/C0361300.jpg
3614;27.189335;60.599463;720;;7;35;4;0x0;UNKNOWN;http://weathercam.digitraffic.fi/C0361400.jpg
3615;27.193553;60.599547;720;;7;35;227;Tie 7, Husula;0x0;UNKNOWN;http://weathercam.digitraffic.fi/C0361500.jpg
3616;27.211035;60.597841;720;;7;35;1197;Tie 7, Kolsila;0x0;UNKNOWN;http://weathercam.digitraffic.fi/C0361600.jpg
3621;27.219177;60.597658;720;;7;35;1643;Tie 7, Kolsila;0x0;UNKNOWN;http://weathercam.digitraffic.fi/C0362100.jpg
3622;27.236655;60.598194;720;;7;35;2592;0x0;UNKNOWN;http://weathercam.digitraffic.fi/C0362200.jpg
3623;27.273208;60.589451;720;;7;35;4838;0x0;UNKNOWN;http://weathercam.digitraffic.fi/C0362300.jpg
3627;28.819308;61.135047;300;;62;25;4046;Imatra rekkaparkki itä;704x576;CROSSING_ROAD_INCREASING_DIRECTION;http://weathercam.digitraffic.fi/C0362703.jpg;Imatra;704x576;CROSSING_ROAD_DECREASING_DIRECTION;http://weathercam.digitraffic.fi/C0362704.jpg
3628;28.818989;61.131755;300;;62;26;341;Rekkaparkki länsi;704x576;INCREASING_DIRECTION;http://weathercam.digitraffic.fi/C0362801.jpg;Rekkajono Itään;704x576;DECREASING_DIRECTION;http://weathercam.digitraffic.fi/C0362802.jpg
3631;28.829108;61.128835;300;;24874;112;122;Imatran raja saapuva liikenne;704x576;INCREASING_DIRECTION;http://weathercam.digitraffic.fi/C0363101.jpg
3632;28.83033;61.129411;300;;24874;78;375;Imatran raja saapuva jono;704x576;INCREASING_DIRECTION;http://weathercam.digitraffic.fi/C0363201.jpg
3634;27.84011;60.595378;720;Virolahti, Vaalimaa;7;42;2;rekkaparkki;1280x720;UNKNOWN;http://weathercam.digitraffic.fi/C0363400.jpg
3635;27.84872;60.597165;720;Virolahti, Vaalimaa;7;42;3;1280x720;UNKNOWN;http://weathercam.digitraffic.fi/C0363500.jpg
3638;27.842359;60.594107;300;Virolahti, Vaalimaa;7;42;6;1280x720;UNKNOWN;http://weathercam.digitraffic.fi/C0363800.jpg
3639;27.847419;60.594919;300;Virolahti, Vaalimaa;7;42;7;1280x720;UNKNOWN;http://weathercam.digitraffic.fi/C0363900.jpg
3640;27.851633;60.596859;720;Virolahti, Vaalimaa;7;42;8;1280x720;UNKNOWN;http://weathercam.digitraffic.fi/C0364000.jpg
3647;27.605845;60.591769;600;Road 7 Virolahti, Saarasjärvi;7;37;13563;1280x720;UNKNOWN;http://weathercam.digitraffic.fi/C0364700.jpg
3648;27.380536;60.567173;600;Road 7 Virolahti, Kattilainen;7;37;14;1280x720;UNKNOWN;http://weathercam.digitraffic.fi/C0364800.jpg
3649;27.827996;60.600033;600;Road 7 Virolahti, Vaalimaa;7;41;1;1280x720;UNKNOWN;http://weathercam.digitraffic.fi/C0364900.jpg
3650;27.815499;60.61066;600;Road 7 Virolahti, Vaalimaa, Lappeenrannantie;7;40;25;1280x720;UNKNOWN;http://weathercam.digitraffic.fi/C0365000.jpg
3659;27.75678;60.605546;600;Road 7 Virolahti, Vaalimaa;7;39;2894;1280x720;UNKNOWN;http://weathercam.digitraffic.fi/C0365900.jpg
3660;27.703673;60.604929;600;Road 7 Virolahti, Virojoki;7;38;6000;1280x720;UNKNOWN;http://weathercam.digitraffic.fi/C0366000.jpg
3661;27.583765;60.928596;600;Road 6 Luumäki, Taavetti;6;209;4;Lappeenranta;1280x720;INCREASING_DIRECTION;http://weathercam.digitraffic.fi/C0366101.jpg;Kouvola;1280x720;DECREASING_DIRECTION;http://weathercam.digitraffic.fi/C0366102.jpg;Savitaipale;1280x720;CROSSING_ROAD_INCREASING_DIRECTION;http://weathercam.digitraffic.fi/C0366103.jpg;Hamina;1280x720;CROSSING_ROAD_DECREASING_DIRECTION;http://weathercam.digitraffic.fi/C0366104.jpg;Tienpinta;1280x720;SPECIAL_DIRECTION;http://weathercam.digitraffic.fi/C0366109.jpg
3663;27.664768;60.934604;600;Road 6 Luumäki, kirkko;6;210;1959;Lappeenrantaan;1280x720;INCREASING_DIRECTION;http://weathercam.digitraffic.fi/C0366301.jpg;Kouvolaan;1280x720;DECREASING_DIRECTION;http://weathercam.digitraffic.fi/C0366302.jpg;Tienpinta;1280x720;SPECIAL_DIRECTION;http://weathercam.digitraffic.fi/C0366309.jpg
3664;27.825996;60.603233;600;Road 7 Virolahti, Vaalimaa, Kiertoliittymä P;7;40;1065;1280x720;UNKNOWN;http://weathercam.digitraffic.fi/C0366400.jpg
3665;26.497995;60.485748;720;Road 7 Pyhtää, Roonas;7;24;416;Kotkaan;704x576;INCREASING_DIRECTION;http://weathercam.digitraffic.fi/C0366501.jpg;Helsinkiin;704x576;DECREASING_DIRECTION;http://weathercam.digitraffic.fi/C0366502.jpg;Tienpinta;704x576;SPECIAL_DIRECTION;http://weathercam.digitraffic.fi/C0366509.jpg
3675;27.273208;60.589451;720;;7;35;4839;Vaalimaa;1280x720;INCREASING_DIRECTION;http://weathercam.digitraffic.fi/C0367501.jpg;Helsinki;1280x720;DECREASING_DIRECTION;http://weathercam.digitraffic.fi/C0367502.jpg;Tienpinta;1280x720;SPECIAL_DIRECTION;http://weathercam.digitraffic.fi/C0367509.jpg
3676;27.806766;62.057329;700;Road 5 Joroinen, Puunkolo;5;140;3128;Mikkeliin;1280x720;DECREASING_DIRECTION;http://weathercam.digitraffic.fi/C0367602.jpg
4501;23.980067;62.250216;720;Road 23 Virrat;23;210;2800;Tienpinta;704x576;SPECIAL_DIRECTION;http://weathercam.digitraffic.fi/C0450109.jpg
4502;24.473003;60.971439;720;Road 3 Hämeenlinna, Hattelmala;3;115;7640;Tie 3 Tampereelle;1280x720;INCREASING_DIRECTION;http://weathercam.digitraffic.fi/C0450201.jpg;Tie 3 Helsinkiiin;1280x720;DECREASING_DIRECTION;http://weathercam.digitraffic.fi/C0450202.jpg;Tie 10 Lahteen;1280x720;CROSSING_ROAD_INCREASING_DIRECTION;http://weathercam.digitraffic.fi/C0450203.jpg;Tie 10 Turkuun;1280x720;CROSSING_ROAD_DECREASING_DIRECTION;http://weathercam.digitraffic.fi/C0450204.jpg;Tienpinta;1280x720;SPECIAL_DIRECTION;http://weathercam.digitraffic.fi/C0450209.jpg
4503;23.589387;60.822636;720;Road 2 Forssa;2;23;6375;Tie 2 Poriin;704x576;INCREASING_DIRECTION;http://weathercam.digitraffic.fi/C0450301.jpg;Tie 2 Helsinkiin;704x576;DECREASING_DIRECTION;http://weathercam.digitraffic.fi/C0450302.jpg;Tie 10 Hämeenlinnaan;704x576;CROSSING_ROAD_INCREASING_DIRECTION;http://weathercam.digitraffic.fi/C0450303.jpg;Tie 2 Turkuun;704x576;CROSSING_ROAD_DECREASING_DIRECTION;http://weathercam.digitraffic.fi/C0450304.jpg;Tie 2 Tienpinta;704x576;SPECIAL_DIRECTION;http://weathercam.digitraffic.fi/C0450309.jpg
4504;24.052095;61.54484;720;Road 9 Kangasala, Suinula;9;208;358;Jyväskylään;1280x720;INCREASING_DIRECTION;http://weathercam.digitraffic.fi/C0450401.jpg;Tampereelle;1280x720;DECREASING_DIRECTION;http://weathercam.digitraffic.fi/C0450402.jpg;Tienpinta;1280x720;SPECIAL_DIRECTION;http://weathercam.digitraffic.fi/C0450409.jpg
4505;24.870892;61.102028;720;Road 12 Hämeenlinna, Tuulos;12;215;755;Lahteen;704x576;INCREASING_DIRECTION;http://weathercam.digitraffic.fi/C0450501.jpg
4506;23.3837;61.599482;720;Road 3 Hämeenkyrö, Sasi;3;204;4774;Vaasaan;1280x720;INCREASING_DIRECTION;http://weathercam.digitraffic.fi/C0450601.jpg;Tampereelle;1280x720;DECREASING_DIRECTION;http://weathercam.digitraffic.fi/C0450602.jpg;Tienpinta;1280x720;SPECIAL_DIRECTION;http://weathercam.digitraffic.fi/C0450609.jpg
4507;23.769505;61.462733;720;Road 3 Tampere, Lakalaiva;3;136;0;Vaasaan;1280x720;INCREASING_DIRECTION;http://weathercam.digitraffic.fi/C0450701.jpg;Helsinkiin;1280x720;DECREASING_DIRECTION;http://weathercam.digitraffic.fi/C0450702.jpg;Tie 9 Jyväskylään;1280x720;CROSSING_ROAD_INCREASING_DIRECTION;http://weathercam.digitraffic.fi/C0450703.jpg;Tie 3495 Tampereelle;1280x720;CROSSING_ROAD_DECREASING_DIRECTION;http://weathercam.digitraffic.fi/C0450704.jpg;Tie 9 Tienpinta;1280x720;SPECIAL_DIRECTION;http://weathercam.digitraffic.fi/C0450709.jpg
4508;23.339773;61.503506;720;Road 11 Nokia, Murhasaari;11;4;5200;Poriin;1280x720;INCREASING_DIRECTION;http://weathercam.digitraffic.fi/C0450801.jpg;Tampereelle;1280x720;DECREASING_DIRECTION;http://weathercam.digitraffic.fi/C0450802.jpg;Tie 2624 Siuroon;1280x720;CROSSING_ROAD_DECREASING_DIRECTION;http://weathercam.digitraffic.fi/C0450804.jpg;Tienpinta;1280x720;SPECIAL_DIRECTION;http://weathercam.digitraffic.fi/C0450809.jpg
4509;23.584856;61.48815;720;Road 3 Nokia, Pitkäniemi;3;138;2867;Helsinkiin;1280x720;INCREASING_DIRECTION;http://weathercam.digitraffic.fi/C0450901.jpg;Vaasaan;1280x720;DECREASING_DIRECTION;http://weathercam.digitraffic.fi/C0450902.jpg;Raumalle;1280x720;CROSSING_ROAD_DECREASING_DIRECTION;http://weathercam.digitraffic.fi/C0450904.jpg;Tienpinta;1280x720;SPECIAL_DIRECTION;http://weathercam.digitraffic.fi/C0450909.jpg
4510;23.725555;61.877441;720;Road 65 Ylöjärvi, Kuru;65;11;50;Tampereelle;704x576;DECREASING_DIRECTION;http://weathercam.digitraffic.fi/C0451002.jpg
4512;25.609004;60.979392;720;Road 12 Lahti, Kärpäsenmäki;12;222;4157;Lahteen;704x576;INCREASING_DIRECTION;http://weathercam.digitraffic.fi/C0451201.jpg;Tampereelle;704x576;DECREASING_DIRECTION;http://weathercam.digitraffic.fi/C0451202.jpg
4513;24.287284;61.670776;720;Road 9 Orivesi, Oritupa;9;210;4400;Jyväskylään;1280x720;INCREASING_DIRECTION;http://weathercam.digitraffic.fi/C0451301.jpg;Tampereelle;1280x720;DECREASING_DIRECTION;http://weathercam.digitraffic.fi/C0451302.jpg;Tienpinta;1280x720;SPECIAL_DIRECTION;http://weathercam.digitraffic.fi/C0451309.jpg
4514;23.496312;61.026398;720;Road 9 Urjala, Nuutajärvi;9;121;975;Tampereelle;704x576;INCREASING_DIRECTION;http://weathercam.digitraffic.fi/C0451401.jpg
4516;22.981132;62.175308;720;Road 3 Parkano, Kuivasjärvi;3;219;3790;Tampereelle;704x576;DECREASING_DIRECTION;http://weathercam.digitraffic.fi/C0451602.jpg
4517;24.251452;60.765736;720;Road 54 Loppi;54;4;1485;Riihimäelle;704x576;INCREASING_DIRECTION;http://weathercam.digitraffic.fi/C0451701.jpg
4518;24.729539;60.749682;720;Road 3 Riihimäki, Lemmenmäki;3;112;15;Tie 3 Hämeenlinnaan;1280x720;INCREASING_DIRECTION;http://weathercam.digitraffic.fi/C0451801.jpg;Tie 3 Helsinkiin;1280x720;DECREASING_DIRECTION;http://weathercam.digitraffic.fi/C0451802.jpg;Tie 54 Lahteen;1280x720;CROSSING_ROAD_INCREASING_DIRECTION;http://weathercam.digitraffic.fi/C0451803.jpg;Tie 54 Turkuun;1280x720;CROSSING_ROAD_DECREASING_DIRECTION;http://weathercam.digitraffic.fi/C0451804.jpg;Tienpinta;1280x720;SPECIAL_DIRECTION;http://weathercam.digitraffic.fi/C0451809.jpg
4519;23.25999;61.400326;720;Road 12 Nokia, Sarkola;12;122;2946;Raumalle;1280x720;INCREASING_DIRECTION;http://weathercam.digitraffic.fi/C0451901.jpg;Tampereelle;1280x720;DECREASING_DIRECTION;http://weathercam.digitraffic.fi/C0451902.jpg;Tienpinta;1280x720;SPECIAL_DIRECTION;http://weathercam.digitraffic.fi/C0451909.jpg
4520;25.69925;61.507816;720;Road 413 Sysmä;413;4;3010;Sysmään;704x576;INCREASING_DIRECTION;http://weathercam.digitraffic.fi/C0452001.jpg
4522;25.349865;61.226205;720;Road 24 Asikkala, Iso-Äiniö;24;7;1700;Jämsään;1280x720;INCREASING_DIRECTION;http://weathercam.digitraffic.fi/C0452201.jpg;Lahteen;1280x720;DECREASING_DIRECTION;http://weathercam.digitraffic.fi/C0452202.jpg;Tienpinta;1280x720;SPECIAL_DIRECTION;http://weathercam.digitraffic.fi/C0452209.jpg
4524;23.697603;61.508424;720;Road 12 Tampere, Paasikiventie;12;127;483;Lahteen;1280x720;INCREASING_DIRECTION;http://weathercam.digitraffic.fi/C0452401.jpg;Raumalle;1280x720;DECREASING_DIRECTION;http://weathercam.digitraffic.fi/C0452402.jpg;Tienpinta;1280x720;SPECIAL_DIRECTION;http://weathercam.digitraffic.fi/C0452409.jpg
4526;26.002133;61.193142;720;Road 4 Heinola, Vahravuori;4;207;4460;Jyväskylään;704x576;INCREASING_DIRECTION;http://weathercam.digitraffic.fi/C0452601.jpg;Lahteen;704x576;DECREASING_DIRECTION;http://weathercam.digitraffic.fi/C0452602.jpg;Tie 140 Heinolaan;704x576;CROSSING_ROAD_INCREASING_DIRECTION;http://weathercam.digitraffic.fi/C0452603.jpg;Tie 140 Lahteen;704x576;CROSSING_ROAD_DECREASING_DIRECTION;http://weathercam.digitraffic.fi/C0452604.jpg
4527;23.838616;61.225394;720;Road 3 Valkeakoski, Konho;3;124;340;Tampereelle;704x576;INCREASING_DIRECTION;http://weathercam.digitraffic.fi/C0452701.jpg;Helsinkiin;704x576;DECREASING_DIRECTION;http://weathercam.digitraffic.fi/C0452702.jpg;Tienpinta;704x576;SPECIAL_DIRECTION;http://weathercam.digitraffic.fi/C0452709.jpg
4528;23.636186;61.452837;720;Road 3 Pirkkala;3;137;245;Vaasaan;1280x720;INCREASING_DIRECTION;http://weathercam.digitraffic.fi/C0452801.jpg;Helsinkiin;1280x720;DECREASING_DIRECTION;http://weathercam.digitraffic.fi/C0452802.jpg;Tienpinta;1280x720;SPECIAL_DIRECTION;http://weathercam.digitraffic.fi/C0452809.jpg
4530;23.723528;61.463503;720;Road 3 Pirkkala, Pirkkahalli;3;136;2560;Tie 3 Vaasaan;1280x720;INCREASING_DIRECTION;http://weathercam.digitraffic.fi/C0453001.jpg;Tie 3 Helsinkiin;1280x720;DECREASING_DIRECTION;http://weathercam.digitraffic.fi/C0453002.jpg;Tie 3 Tienpinta;1280x720;SPECIAL_DIRECTION;http://weathercam.digitraffic.fi/C0453009.jpg
4531;24.351578;61.272988;720;Road 12 Pälkäne;12;209;32;Lahteen;1280x720;INCREASING_DIRECTION;http://weathercam.digitraffic.fi/C0453101.jpg;Tampereelle;1280x720;DECREASING_DIRECTION;http://weathercam.digitraffic.fi/C0453102.jpg;Tie 57 Hämeenlinnaan;1280x720;CROSSING_ROAD_DECREASING_DIRECTION;http://weathercam.digitraffic.fi/C0453104.jpg;Tienpinta;1280x720;SPECIAL_DIRECTION;http://weathercam.digitraffic.fi/C0453109.jpg
4533;23.595982;61.470968;720;Road 3 Pirkkala, Rajaniemi;3;138;795;Vaasaan;1280x720;INCREASING_DIRECTION;http://weathercam.digitraffic.fi/C0453301.jpg;Helsinkiin;1280x720;DECREASING_DIRECTION;http://weathercam.digitraffic.fi/C0453302.jpg;Tienpinta;1280x720;SPECIAL_DIRECTION;http://weathercam.digitraffic.fi/C0453309.jpg
4534;23.88529;61.498457;720;Road 12 Tampere, Alasjärvi;12;202;494;Tie 12 Lahteen;1280x720;INCREASING_DIRECTION;http://weathercam.digitraffic.fi/C0453401.jpg;Tie 12 Tampereelle;1280x720;DECREASING_DIRECTION;http://weathercam.digitraffic.fi/C0453402.jpg;Tie 9 Jyväskylään;1280x720;CROSSING_ROAD_INCREASING_DIRECTION;http://weathercam.digitraffic.fi/C0453403.jpg;Tie 9 Turkuun;1280x720;CROSSING_ROAD_DECREASING_DIRECTION;http://weathercam.digitraffic.fi/C0453404.jpg;Tie 9 Tienpinta;1280x720;SPECIAL_DIRECTION;http://weathercam.digitraffic.fi/C0453408.jpg;Tie 12 Tienpinta;1280x720;SPECIAL_DIRECTION;http://weathercam.digitraffic.fi/C0453409.jpg
4535;24.800909;61.740547;720;Road 9 Jämsä, Länkipohja;9;215;3391;Jyväskylään;1280x720;INCREASING_DIRECTION;http://weathercam.digitraffic.fi/C0453501.jpg;Tampereelle;1280x720;DECREASING_DIRECTION;http://weathercam.digitraffic.fi/C0453502.jpg;Tienpinta;1280x720;SPECIAL_DIRECTION;http://weathercam.digitraffic.fi/C0453509.jpg
4536;25.784664;60.997503;720;Road 4 Lahti, Ahtiala;4;203;0;Jyväskylään;1280x720;INCREASING_DIRECTION;http://weathercam.digitraffic.fi/C0453601.jpg;Helsinkiin;1280x720;DECREASING_DIRECTION;http://weathercam.digitraffic.fi/C0453602.jpg;Tienpinta;1280x720;SPECIAL_DIRECTION;http://weathercam.digitraffic.fi/C0453609.jpg
4537;22.979492;61.900972;720;Road 3 Ikaalinen, Luhalahti;3;214;250;Tampereelle;704x576;DECREASING_DIRECTION;http://weathercam.digitraffic.fi/C0453702.jpg
4538;25.999575;61.519749;710;Road 4 Hartola, Pohjola;4;215;1888;Jyväskylään;videoResolutionWidth=1280&videoResolutionHeight=720;INCREASING_DIRECTION;http://weathercam.digitraffic.fi/C0453801.jpg;Lahteen;videoResolutionWidth=1280&videoResolutionHeight=720;DECREASING_DIRECTION;http://weathercam.digitraffic.fi/C0453802.jpg;Tienpinta;videoResolutionWidth=1280&videoResolutionHeight=720;SPECIAL_DIRECTION;http://weathercam.digitraffic.fi/C0453809.jpg
4539;26.092728;60.926374;720;Road 12 Nastola, Arola;12;224;22360;Kouvolaan;704x576;INCREASING_DIRECTION;http://weathercam.digitraffic.fi/C0453901.jpg
4540;24.016096;60.828269;720;Road 10 Tammela, Heinivaho;10;20;5201;Hämeenlinnaan;704x576;INCREASING_DIRECTION;http://weathercam.digitraffic.fi/C0454001.jpg;Turkuun;704x576;DECREASING_DIRECTION;http://weathercam.digitraffic.fi/C0454002.jpg;Tie 54 Riihimäelle;704x576;CROSSING_ROAD_INCREASING_DIRECTION;http://weathercam.digitraffic.fi/C0454003.jpg;Tie 283 Urjalaan;704x576;CROSSING_ROAD_DECREASING_DIRECTION;http://weathercam.digitraffic.fi/C0454004.jpg;Tienpinta;704x576;SPECIAL_DIRECTION;http://weathercam.digitraffic.fi/C0454009.jpg
4541;25.267874;60.881068;720;Road 54 Kärkölä;54;17;3;Tienpinta;704x576;SPECIAL_DIRECTION;http://weathercam.digitraffic.fi/C0454109.jpg
4542;24.392114;61.785072;720;Road 58 Juupajoki;58;9;6776;Mänttään;1280x720;INCREASING_DIRECTION;http://weathercam.digitraffic.fi/C0454201.jpg;Orivedelle;1280x720;DECREASING_DIRECTION;http://weathercam.digitraffic.fi/C0454202.jpg;Tie 14290 Juupajoelle;1280x720;CROSSING_ROAD_INCREASING_DIRECTION;http://weathercam.digitraffic.fi/C0454203.jpg;Tie 14289 Salokuntaan;1280x720;CROSSING_ROAD_DECREASING_DIRECTION;http://weathercam.digitraffic.fi/C0454204.jpg;Tienpinta;1280x720;SPECIAL_DIRECTION;http://weathercam.digitraffic.fi/C0454209.jpg
4543;24.115442;61.945398;720;Road 66 Ruovesi, Ruhala;66;8;135;Virroille;1280x720;INCREASING_DIRECTION;http://weathercam.digitraffic.fi/C0454301.jpg;Orivedelle;1280x720;DECREASING_DIRECTION;http://weathercam.digitraffic.fi/C0454302.jpg;Tienpinta;1280x720;SPECIAL_DIRECTION;http://weathercam.digitraffic.fi/C0454309.jpg
4544;23.821133;61.50411;720;Road 12 Tampere, Kissanmaa;12;201;1030;Lahteen;704x576;INCREASING_DIRECTION;http://weathercam.digitraffic.fi/C0454401.jpg;Tampereelle;704x576;DECREASING_DIRECTION;http://weathercam.digitraffic.fi/C0454402.jpg;Tienpinta;704x576;SPECIAL_DIRECTION;http://weathercam.digitraffic.fi/C0454409.jpg
4546;23.687886;61.508008;720;Road 12 Tampere, Hyhky;12;126;6140;Lahteen;704x576;INCREASING_DIRECTION;http://weathercam.digitraffic.fi/C0454601.jpg;Raumalle;704x576;DECREASING_DIRECTION;http://weathercam.digitraffic.fi/C0454602.jpg;Pispalaan;704x576;CROSSING_ROAD_INCREASING_DIRECTION;http://weathercam.digitraffic.fi/C0454603.jpg;Epilään;704x576;CROSSING_ROAD_DECREASING_DIRECTION;http://weathercam.digitraffic.fi/C0454604.jpg
4547;23.874866;61.488435;720;Road 9 Tampere, Linnainmaa;9;205;3300;Jyväskylään;1280x720;INCREASING_DIRECTION;http://weathercam.digitraffic.fi/C0454701.jpg;Turkuun;1280x720;DECREASING_DIRECTION;http://weathercam.digitraffic.fi/C0454702.jpg;Sammon valtatie länteen;1280x720;CROSSING_ROAD_INCREASING_DIRECTION;http://weathercam.digitraffic.fi/C0454703.jpg;Sammon valtatie itään;1280x720;CROSSING_ROAD_DECREASING_DIRECTION;http://weathercam.digitraffic.fi/C0454704.jpg;Tienpinta;1280x720;SPECIAL_DIRECTION;http://weathercam.digitraffic.fi/C0454709.jpg
4548;23.663405;61.514618;720;Road 65 Tampere, Lielahti;65;1;1468;Ylöjärvelle;704x576;INCREASING_DIRECTION;http://weathercam.digitraffic.fi/C0454801.jpg;Tampereelle;704x576;DECREASING_DIRECTION;http://weathercam.digitraffic.fi/C0454802.jpg;Tienpinta;704x576;SPECIAL_DIRECTION;http://weathercam.digitraffic.fi/C0454809.jpg
4555;23.774492;61.477335;720;Road 3495 Tampere, Rautaharkko;3495;1;1713;Tampereelle;1280x720;INCREASING_DIRECTION;http://weathercam.digitraffic.fi/C0455501.jpg;Helsinkiin;1280x720;DECREASING_DIRECTION;http://weathercam.digitraffic.fi/C0455502.jpg;Tienpinta;1280x720;SPECIAL_DIRECTION;http://weathercam.digitraffic.fi/C0455509.jpg
4556;24.459218;60.989917;720;Road 3 Hämeenlinna, Etelä;3;116;2241;704x576;UNKNOWN;http://weathercam.digitraffic.fi/C0455600.jpg
4558;24.459218;60.989917;720;Road 3 Hämeenlinna, Puomi Etelä;3;116;2242;704x576;UNKNOWN;http://weathercam.digitraffic.fi/C0455800.jpg
4563;24.453184;60.996684;720;Road 3 Hämeenlinna, Pohjoinen;3;116;3064;704x576;UNKNOWN;http://weathercam.digitraffic.fi/C0456300.jpg
4564;24.452094;60.998981;720;Road 3 Hämeenlinna, Puomi Pohjoin;3;116;3335;704x576;INCREASING_DIRECTION;http://weathercam.digitraffic.fi/C0456401.jpg
4565;24.44878;61.002242;720;Road 3 Hämeenlinna, Ojoinen;3;116;3736;704x576;UNKNOWN;http://weathercam.digitraffic.fi/C0456500.jpg
4566;24.543075;60.912418;720;Road 3 Janakkala, Turenki;3;115;0;Hämeenlinnaan;videoResolutionWidth=1280&videoResolutionHeight=720;INCREASING_DIRECTION;http://weathercam.digitraffic.fi/C0456601.jpg;Helsinkiin;videoResolutionWidth=1280&videoResolutionHeight=720;DECREASING_DIRECTION;http://weathercam.digitraffic.fi/C0456602.jpg;Tie 292 Turenkiin;videoResolutionWidth=1280&videoResolutionHeight=720;CROSSING_ROAD_INCREASING_DIRECTION;http://weathercam.digitraffic.fi/C0456603.jpg;Tie 292 Viralaan;videoResolutionWidth=1280&videoResolutionHeight=720;CROSSING_ROAD_DECREASING_DIRECTION;http://weathercam.digitraffic.fi/C0456604.jpg;Tienpinta;videoResolutionWidth=1280&videoResolutionHeight=720;SPECIAL_DIRECTION;http://weathercam.digitraffic.fi/C0456609.jpg
4567;26.03436;61.66544;720;Road 4 Hartola, Kettuvuori;4;219;790;Tie 4 Jyväskylään;1280x720;INCREASING_DIRECTION;http://weathercam.digitraffic.fi/C0456701.jpg;Tie 4 Lahteen;1280x720;DECREASING_DIRECTION;http://weathercam.digitraffic.fi/C0456702.jpg;Tienpinta;1280x720;SPECIAL_DIRECTION;http://weathercam.digitraffic.fi/C0456709.jpg
4568;23.716046;61.505814;600;;12;127;1508;Tie 12 Tampere, Rantatie;1280x720;UNKNOWN;http://weathercam.digitraffic.fi/C0456800.jpg
4569;23.720833;61.504465;600;;12;127;1802;Tie 12 Tampere, Santalahdenpuisto;1280x720;UNKNOWN;http://weathercam.digitraffic.fi/C0456900.jpg
4570;23.725477;61.50304;600;;12;127;2120;Tie 12 Tampere, Tikkutehdas;1280x720;UNKNOWN;http://weathercam.digitraffic.fi/C0457000.jpg
4571;23.727216;61.502058;600;;12;127;2240;Tie 12 Tampere, Rantatunneli;1280x720;UNKNOWN;http://weathercam.digitraffic.fi/C0457100.jpg
4572;23.730278;61.501376;600;;12;127;2400;Tie 12 Tampere, Rantatunneli;1280x720;UNKNOWN;http://weathercam.digitraffic.fi/C0457200.jpg
4607;23.772567;61.507146;600;;12;127;4801;Tie 12 Tampere, Armonkallio;1280x720;UNKNOWN;http://weathercam.digitraffic.fi/C0460700.jpg
4608;23.772927;61.507667;600;;12;127;4822;Tie 12 Tampere, Rantatunneli;1280x720;UNKNOWN;http://weathercam.digitraffic.fi/C0460800.jpg
4609;23.776646;61.50753;600;;12;127;4980;Tie 12 Tampere, Rantatunnelin suu, itä;1280x720;UNKNOWN;http://weathercam.digitraffic.fi/C0460900.jpg
4610;23.77996;61.507312;600;;12;127;5165;Tie 12 Tampere, Marjatansilta;1280x720;UNKNOWN;http://weathercam.digitraffic.fi/C0461000.jpg
4611;23.786345;61.506484;600;;12;127;5510;Tie 12 Tampere, Petsamo;1280x720;UNKNOWN;http://weathercam.digitraffic.fi/C0461100.jpg
4612;23.790814;61.460227;720;Road 9 Tampere, Lahdesjärvi;9;204;1185;Jyväskylään;1280x720;INCREASING_DIRECTION;http://weathercam.digitraffic.fi/C0461201.jpg;Turkuun;1280x720;DECREASING_DIRECTION;http://weathercam.digitraffic.fi/C0461202.jpg;Tie 43581 Vuorekseen;1280x720;CROSSING_ROAD_INCREASING_DIRECTION;http://weathercam.digitraffic.fi/C0461203.jpg;Tie 43581 Rampit;1280x720;CROSSING_ROAD_DECREASING_DIRECTION;http://weathercam.digitraffic.fi/C0461204.jpg;Tienpinta;1280x720;SPECIAL_DIRECTION;http://weathercam.digitraffic.fi/C0461209.jpg
4613;23.951396;61.532529;720;Road 9 Tampere, Olkahinen;9;206;5266;Jyväskylään;1280x720;INCREASING_DIRECTION;http://weathercam.digitraffic.fi/C0461301.jpg;Tampereelle;1280x720;DECREASING_DIRECTION;http://weathercam.digitraffic.fi/C0461302.jpg;Tie388 Sorilaan;1280x720;CROSSING_ROAD_INCREASING_DIRECTION;http://weathercam.digitraffic.fi/C0461303.jpg;Tie 388 Olkahisiin;1280x720;CROSSING_ROAD_DECREASING_DIRECTION;http://weathercam.digitraffic.fi/C0461304.jpg;Tienpinta;1280x720;SPECIAL_DIRECTION;http://weathercam.digitraffic.fi/C0461309.jpg
4614;23.791187;61.365893;710;Road 3 Lempäälä, Ideapark;3;134;1;Tampereelle;1280x720;INCREASING_DIRECTION;http://weathercam.digitraffic.fi/C0461401.jpg;Helsinkiin;1280x720;DECREASING_DIRECTION;http://weathercam.digitraffic.fi/C0461402.jpg;Tie 130 Ruskea-ahde;1280x720;CROSSING_ROAD_INCREASING_DIRECTION;http://weathercam.digitraffic.fi/C0461403.jpg;Tie 130 Hämeenlinnaan;1280x720;CROSSING_ROAD_DECREASING_DIRECTION;http://weathercam.digitraffic.fi/C0461404.jpg;Tienpinta;1280x720;SPECIAL_DIRECTION;http://weathercam.digitraffic.fi/C0461409.jpg
4615;23.760294;61.418909;720;Road 3 Lempäälä, Sääksjärvi;3;135;8;Tampereelle;1280x720;INCREASING_DIRECTION;http://weathercam.digitraffic.fi/C0461501.jpg;Helsinkiin;1280x720;DECREASING_DIRECTION;http://weathercam.digitraffic.fi/C0461502.jpg;Tie 309 Hervantaan;1280x720;CROSSING_ROAD_INCREASING_DIRECTION;http://weathercam.digitraffic.fi/C0461503.jpg;Tie 309 Sääksjärvelle;1280x720;CROSSING_ROAD_DECREASING_DIRECTION;http://weathercam.digitraffic.fi/C0461504.jpg;Tienpinta;1280x720;SPECIAL_DIRECTION;http://weathercam.digitraffic.fi/C0461509.jpg
4616;23.917511;61.497141;600;Road 12 Tampere, Atala;12;202;2232;Lahteen;1280x720;INCREASING_DIRECTION;http://weathercam.digitraffic.fi/C0461601.jpg;Tampereelle;1280x720;DECREASING_DIRECTION;http://weathercam.digitraffic.fi/C0461602.jpg;Tienpinta;1280x720;SPECIAL_DIRECTION;http://weathercam.digitraffic.fi/C0461609.jpg
4659;23.948109;61.491056;600;Road 12 Kangasala, Kiveliö;12;202;4021;Tie 12 Kangasala Kiveliö;1280x720;UNKNOWN;http://weathercam.digitraffic.fi/C0465900.jpg
6501;27.272063;61.680316;720;Road 5 Mikkeli;5;129;36;Kuopiooon;1280x720;INCREASING_DIRECTION;http://weathercam.digitraffic.fi/C0650101.jpg;Lahteen;1280x720;DECREASING_DIRECTION;http://weathercam.digitraffic.fi/C0650102.jpg;Tie 13 Mikkeliin;1280x720;CROSSING_ROAD_INCREASING_DIRECTION;http://weathercam.digitraffic.fi/C0650103.jpg;Tie 13 Ristiinaan;1280x720;CROSSING_ROAD_DECREASING_DIRECTION;http://weathercam.digitraffic.fi/C0650104.jpg;Tienpinta;1280x720;SPECIAL_DIRECTION;http://weathercam.digitraffic.fi/C0650109.jpg
6502;28.304476;61.966783;720;Road 14 Rantasalmi, Hiismäki;14;7;1796;Savonlinnaan;704x576;INCREASING_DIRECTION;http://weathercam.digitraffic.fi/C0650201.jpg;Juvalle;704x576;DECREASING_DIRECTION;http://weathercam.digitraffic.fi/C0650202.jpg;Rantasalmi;704x576;CROSSING_ROAD_INCREASING_DIRECTION;http://weathercam.digitraffic.fi/C0650203.jpg
6503;28.46415;62.524064;720;Tie 23, Heinävesi, Lamminpää;23;410;0;Joensuuhun;1280x720;INCREASING_DIRECTION;http://weathercam.digitraffic.fi/C0650301.jpg;Varkauteen;1280x720;DECREASING_DIRECTION;http://weathercam.digitraffic.fi/C0650302.jpg;Heinävedelle;1280x720;CROSSING_ROAD_INCREASING_DIRECTION;http://weathercam.digitraffic.fi/C0650303.jpg;Tienpinta;1280x720;SPECIAL_DIRECTION;http://weathercam.digitraffic.fi/C0650309.jpg
6504;28.695867;61.610707;720;Road 438 Sulkava, Lohilahti;438;7;1430;Sulkavalle;1280x720;INCREASING_DIRECTION;http://weathercam.digitraffic.fi/C0650401.jpg;Imatralle;1280x720;DECREASING_DIRECTION;http://weathercam.digitraffic.fi/C0650402.jpg;Järvimaisema;1280x720;SPECIAL_DIRECTION;http://weathercam.digitraffic.fi/C0650408.jpg;Tienpinta;1280x720;SPECIAL_DIRECTION;http://weathercam.digitraffic.fi/C0650409.jpg
6505;27.047652;62.279094;720;Road 23 Pieksämäki, Naarajärvi;23;306;2059;Pieksämäelle;1280x720;INCREASING_DIRECTION;http://weathercam.digitraffic.fi/C0650501.jpg;Jyväskylään;1280x720;DECREASING_DIRECTION;http://weathercam.digitraffic.fi/C0650502.jpg;Tie 447 Kangasniemelle;1280x720;CROSSING_ROAD_DECREASING_DIRECTION;http://weathercam.digitraffic.fi/C0650504.jpg;Tienpinta;1280x720;SPECIAL_DIRECTION;http://weathercam.digitraffic.fi/C0650509.jpg
6506;28.318466;61.799361;720;Road 435 Sulkava;435;5;1395;Juvalle;800x600;INCREASING_DIRECTION;http://weathercam.digitraffic.fi/C0650601.jpg
6507;26.318696;62.159236;720;Road 13 Kangasniemi, Häppälä;13;203;2452;Jyväskylään;1280x720;UNKNOWN;http://weathercam.digitraffic.fi/C0650700.jpg
6508;28.846705;61.877877;720;Road 14 Savonlinna, Laitaatsalmi;14;13;5018;Savonlinnaan;1280x720;INCREASING_DIRECTION;http://weathercam.digitraffic.fi/C0650801.jpg;Juvalle;1280x720;DECREASING_DIRECTION;http://weathercam.digitraffic.fi/C0650802.jpg;Järvimaisema;1280x720;SPECIAL_DIRECTION;http://weathercam.digitraffic.fi/C0650808.jpg;Tienpinta;1280x720;SPECIAL_DIRECTION;http://weathercam.digitraffic.fi/C0650809.jpg
6509;28.854191;61.879312;720;Road 14 Savonlinna, Hevonpäänniem;14;13;6207;Savonlinnaan;1280x720;INCREASING_DIRECTION;http://weathercam.digitraffic.fi/C0650901.jpg;Tienpinta;1280x720;SPECIAL_DIRECTION;http://weathercam.digitraffic.fi/C0650909.jpg
6510;28.874285;61.876607;720;Road 14 Savonlinna, Ratapiha;14;13;6518;Savonlinnaan;1280x720;INCREASING_DIRECTION;http://weathercam.digitraffic.fi/C0651001.jpg;Juvalle;1280x720;DECREASING_DIRECTION;http://weathercam.digitraffic.fi/C0651002.jpg;Maisema;1280x720;SPECIAL_DIRECTION;http://weathercam.digitraffic.fi/C0651007.jpg;Savonlinna;1280x720;SPECIAL_DIRECTION;http://weathercam.digitraffic.fi/C0651008.jpg;Tienpinta;1280x720;SPECIAL_DIRECTION;http://weathercam.digitraffic.fi/C0651009.jpg
6511;28.899295;61.868272;720;Road 14 Savonlinna, Ruislahti;14;13;8362;Lappeenrantaan;1280x720;INCREASING_DIRECTION;http://weathercam.digitraffic.fi/C0651101.jpg;Savonlinnaan;1280x720;DECREASING_DIRECTION;http://weathercam.digitraffic.fi/C0651102.jpg;Tienpinta;1280x720;SPECIAL_DIRECTION;http://weathercam.digitraffic.fi/C0651109.jpg
6512;28.923174;61.868182;720;Road 14 Savonlinna, Miekkoniemi;14;16;25;Lappeenrantaan;1280x720;INCREASING_DIRECTION;http://weathercam.digitraffic.fi/C0651201.jpg;Savonlinnaan;1280x720;DECREASING_DIRECTION;http://weathercam.digitraffic.fi/C0651202.jpg;Tienpinta;1280x720;SPECIAL_DIRECTION;http://weathercam.digitraffic.fi/C0651209.jpg
6513;26.657432;62.002904;720;Road 13 Kangasniemi;13;209;12;Mikkeliin;1280x720;INCREASING_DIRECTION;http://weathercam.digitraffic.fi/C0651301.jpg;Jyväskylään;1280x720;DECREASING_DIRECTION;http://weathercam.digitraffic.fi/C0651302.jpg;Tie 447 Pieksämäelle;1280x720;CROSSING_ROAD_INCREASING_DIRECTION;http://weathercam.digitraffic.fi/C0651303.jpg;Tie 616 Joutsaan;1280x720;CROSSING_ROAD_DECREASING_DIRECTION;http://weathercam.digitraffic.fi/C0651304.jpg;Tienpinta;1280x720;SPECIAL_DIRECTION;http://weathercam.digitraffic.fi/C0651309.jpg
6514;28.953939;61.876495;720;Road 14 Savonlinna, Nojamaa;14;17;117;Lappeenrantaan;1280x720;INCREASING_DIRECTION;http://weathercam.digitraffic.fi/C0651401.jpg;Savoninnaan;1280x720;DECREASING_DIRECTION;http://weathercam.digitraffic.fi/C0651402.jpg;Tienpinta;1280x720;SPECIAL_DIRECTION;http://weathercam.digitraffic.fi/C0651409.jpg
6515;28.919969;62.533583;720;Road 23 Heinävesi, Suurmäki;23;414;1100;Joensuuhun;800x600;INCREASING_DIRECTION;http://weathercam.digitraffic.fi/C0651501.jpg
6516;28.632117;62.422574;720;Road 476 Heinävesi;476;7;17;Joensuuhun;704x576;INCREASING_DIRECTION;http://weathercam.digitraffic.fi/C0651601.jpg;Varkauteen;704x576;DECREASING_DIRECTION;http://weathercam.digitraffic.fi/C0651602.jpg;Tienpinta;704x576;SPECIAL_DIRECTION;http://weathercam.digitraffic.fi/C0651609.jpg
6517;26.836214;62.463608;720;;9;313;10259;Kuopioon;1280x720;INCREASING_DIRECTION;http://weathercam.digitraffic.fi/C0651701.jpg;Jyväskylään;1280x720;DECREASING_DIRECTION;http://weathercam.digitraffic.fi/C0651702.jpg;Tienpinta;1280x720;SPECIAL_DIRECTION;http://weathercam.digitraffic.fi/C0651709.jpg
6519;28.838159;61.878423;720;Road 14 Savonlinna, Laitaatsalmi;14;13;4471;Savonlinnaan;videoResolutionWidth=1280&videoResolutionHeight=720;INCREASING_DIRECTION;http://weathercam.digitraffic.fi/C0651901.jpg;Juvalle;videoResolutionWidth=1280&videoResolutionHeight=720;DECREASING_DIRECTION;http://weathercam.digitraffic.fi/C0651902.jpg
6521;28.500378;61.738281;600;Road 438, Sulkava,Vekaransalmi;438;10;2387;Sulkavalle;1280x720;INCREASING_DIRECTION;http://weathercam.digitraffic.fi/C0652101.jpg;Virmutjoelle;1280x720;DECREASING_DIRECTION;http://weathercam.digitraffic.fi/C0652102.jpg;Järvimaisema;1280x720;SPECIAL_DIRECTION;http://weathercam.digitraffic.fi/C0652107.jpg;Järvimaisema 2;1280x720;SPECIAL_DIRECTION;http://weathercam.digitraffic.fi/C0652108.jpg;Tienpinta;1280x720;SPECIAL_DIRECTION;http://weathercam.digitraffic.fi/C0652109.jpg
6522;28.262171;61.482832;700;Road 62 Puumala, Huuhkaala;62;16;682;Mikkeliin;1280x720;DECREASING_DIRECTION;http://weathercam.digitraffic.fi/C0652202.jpg
7501;29.995521;63.52359;720;Road 524 Lieksa, Nurmijärvi;524;5;1541;Nurmijärvi;1280x720;INCREASING_DIRECTION;http://weathercam.digitraffic.fi/C0750101.jpg
7502;30.53234;63.283638;720;Road 522 Lieksa, Hatunkylä;522;19;4245;Hatunkylä;800x600;INCREASING_DIRECTION;http://weathercam.digitraffic.fi/C0750201.jpg
7503;30.850259;62.345539;720;Road 500 Joensuu, Hoilola;500;7;1760;Hoilola;1280x720;INCREASING_DIRECTION;http://weathercam.digitraffic.fi/C0750301.jpg
7504;29.607324;62.053425;720;Road 71 Väärämäki;71;7;12308;Puhokselle;1280x720;INCREASING_DIRECTION;http://weathercam.digitraffic.fi/C0750401.jpg
7505;29.873687;61.974388;720;Road 6, Kitee, Kousa;6;334;6475;Kiteelle;1280x720;INCREASING_DIRECTION;http://weathercam.digitraffic.fi/C0750501.jpg
7506;30.126072;63.046943;720;Road 73 Lieksa, Kyyrönlampi;73;12;346;Lieksaan;800x600;INCREASING_DIRECTION;http://weathercam.digitraffic.fi/C0750601.jpg
7507;29.804021;62.957283;720;Road 6 Kontiolahti, Romppala;6;407;63;Joensuuhun;1280x720;DECREASING_DIRECTION;http://weathercam.digitraffic.fi/C0750702.jpg
8503;30.612451;62.172242;720;Road 9 Tohmajärvi, Niirala;9;361;3368;Suomesta lähtevä liikenne;704x576;DECREASING_DIRECTION;http://weathercam.digitraffic.fi/C0850302.jpg
8505;29.623547;63.476113;720;Road 73 Lieksa, Vieki;73;25;4040;Nurmekseen;1280x720;INCREASING_DIRECTION;http://weathercam.digitraffic.fi/C0850501.jpg;Lieksaan;1280x720;DECREASING_DIRECTION;http://weathercam.digitraffic.fi/C0850502.jpg;Tie 5260 Viekiin;1280x720;CROSSING_ROAD_INCREASING_DIRECTION;http://weathercam.digitraffic.fi/C0850503.jpg;Tie 5260 Mätasvaaraan;1280x720;CROSSING_ROAD_DECREASING_DIRECTION;http://weathercam.digitraffic.fi/C0850504.jpg;Tienpinta;1280x720;SPECIAL_DIRECTION;http://weathercam.digitraffic.fi/C0850509.jpg
8506;27.604964;62.589621;720;Road 5 Leppävirta, Oravikoski;5;154;791;Kuopioon;704x576;INCREASING_DIRECTION;http://weathercam.digitraffic.fi/C0850601.jpg;Varkauteen;704x576;DECREASING_DIRECTION;http://weathercam.digitraffic.fi/C0850602.jpg;Tienpinta;704x576;SPECIAL_DIRECTION;http://weathercam.digitraffic.fi/C0850609.jpg
8508;27.440439;63.869617;720;Road 5 Sonkajärvi, Sukeva;5;226;94;Kajaaniin;1280x720;INCREASING_DIRECTION;http://weathercam.digitraffic.fi/C0850801.jpg;Kuopioon;1280x720;DECREASING_DIRECTION;http://weathercam.digitraffic.fi/C0850802.jpg;Tienpinta;1280x720;SPECIAL_DIRECTION;http://weathercam.digitraffic.fi/C0850809.jpg
8509;27.120953;62.634732;720;Road 9 Suonenjoki, Purola;9;320;900;Kuopioon;1280x720;INCREASING_DIRECTION;http://weathercam.digitraffic.fi/C0850901.jpg;Jyväskylään;1280x720;DECREASING_DIRECTION;http://weathercam.digitraffic.fi/C0850902.jpg;Suonenjoelle;1280x720;CROSSING_ROAD_INCREASING_DIRECTION;http://weathercam.digitraffic.fi/C0850903.jpg;Karttulaan;1280x720;CROSSING_ROAD_DECREASING_DIRECTION;http://weathercam.digitraffic.fi/C0850904.jpg;Tienpinta;1280x720;SPECIAL_DIRECTION;http://weathercam.digitraffic.fi/C0850909.jpg
8510;27.577415;62.71901;720;Road 5 Kuopio, Vehmasmäki;5;155;9614;Kuopioon;704x576;INCREASING_DIRECTION;http://weathercam.digitraffic.fi/C0851001.jpg;Varkauteen;704x576;DECREASING_DIRECTION;http://weathercam.digitraffic.fi/C0851002.jpg
8511;29.010369;63.564128;720;Road 6 Nurmes, Lamminkangas;6;419;914;Kajaaniin;1280x720;INCREASING_DIRECTION;http://weathercam.digitraffic.fi/C0851101.jpg;Joensuuhun;1280x720;DECREASING_DIRECTION;http://weathercam.digitraffic.fi/C0851102.jpg;Tienpinta;1280x720;SPECIAL_DIRECTION;http://weathercam.digitraffic.fi/C0851109.jpg
8517;30.226003;62.907214;720;Road 73 Eno, Uimaharju;73;7;1448;Joensuu;1280x720;INCREASING_DIRECTION;http://weathercam.digitraffic.fi/C0851701.jpg;Nurmes;1280x720;DECREASING_DIRECTION;http://weathercam.digitraffic.fi/C0851702.jpg;Tienpinta;1280x720;SPECIAL_DIRECTION;http://weathercam.digitraffic.fi/C0851709.jpg
8518;29.949585;62.083314;720;Road 6Kitee,  Puhos;6;337;558;Joensuuhun;1280x720;INCREASING_DIRECTION;http://weathercam.digitraffic.fi/C0851801.jpg;Lappeenrantaan;1280x720;DECREASING_DIRECTION;http://weathercam.digitraffic.fi/C0851802.jpg;Tienpinta;1280x720;SPECIAL_DIRECTION;http://weathercam.digitraffic.fi/C0851809.jpg
8519;28.658107;62.786943;720;Road 9 Tuusniemi, Paakkila;9;337;6616;Joensuuhun;704x576;INCREASING_DIRECTION;http://weathercam.digitraffic.fi/C0851901.jpg;Kuopioon;704x576;DECREASING_DIRECTION;http://weathercam.digitraffic.fi/C0851902.jpg;Tienpinta;704x576;SPECIAL_DIRECTION;http://weathercam.digitraffic.fi/C0851909.jpg
8520;26.916136;63.610419;720;Road 27 Iisalmi, Runni;27;26;302;Iisalmeen;704x576;INCREASING_DIRECTION;http://weathercam.digitraffic.fi/C0852001.jpg;Kalajoelle;704x576;DECREASING_DIRECTION;http://weathercam.digitraffic.fi/C0852002.jpg;Tienpinta;704x576;SPECIAL_DIRECTION;http://weathercam.digitraffic.fi/C0852009.jpg
8521;27.815048;62.354763;720;Road 5 Varkaus, Huruslahti;5;147;4905;Kuopioon;1280x720;INCREASING_DIRECTION;http://weathercam.digitraffic.fi/C0852101.jpg;Varkauteen;1280x720;DECREASING_DIRECTION;http://weathercam.digitraffic.fi/C0852102.jpg;Tienpinta;1280x720;SPECIAL_DIRECTION;http://weathercam.digitraffic.fi/C0852109.jpg
8522;27.390516;63.38146;720;Road 5 Lapinlahti, Salonsaari;5;213;3369;Kajaaniin;1280x720;INCREASING_DIRECTION;http://weathercam.digitraffic.fi/C0852201.jpg;Kuopioon;1280x720;DECREASING_DIRECTION;http://weathercam.digitraffic.fi/C0852202.jpg;Tienpinta;1280x720;SPECIAL_DIRECTION;http://weathercam.digitraffic.fi/C0852209.jpg
8523;30.361484;62.221872;720;Road 9 Tohmajärvi;9;358;2294;Niiralaan;704x576;INCREASING_DIRECTION;http://weathercam.digitraffic.fi/C0852301.jpg;Tohmajärvi;704x576;DECREASING_DIRECTION;http://weathercam.digitraffic.fi/C0852302.jpg
8524;27.674805;62.929123;720;Road 5 Kuopio, Päiväranta;5;201;3496;Siilinjärvi;videoResolutionWidth=1280&videoResolutionHeight=720;INCREASING_DIRECTION;http://weathercam.digitraffic.fi/C0852401.jpg;Mikkeli;videoResolutionWidth=1280&videoResolutionHeight=720;DECREASING_DIRECTION;http://weathercam.digitraffic.fi/C0852402.jpg;Tienpinta;videoResolutionWidth=1280&videoResolutionHeight=720;SPECIAL_DIRECTION;http://weathercam.digitraffic.fi/C0852409.jpg
8525;29.610078;63.094644;720;Road 6 Juuka, Ahmovaara;6;409;7618;Kajaaniin;704x576;INCREASING_DIRECTION;http://weathercam.digitraffic.fi/C0852501.jpg;Joensuuhun;704x576;DECREASING_DIRECTION;http://weathercam.digitraffic.fi/C0852502.jpg;Kolille;704x576;CROSSING_ROAD_INCREASING_DIRECTION;http://weathercam.digitraffic.fi/C0852503.jpg
8526;26.33446;63.186155;720;Road 77 Keitele;77;20;20;Siilinjärvellle;1280x720;INCREASING_DIRECTION;http://weathercam.digitraffic.fi/C0852601.jpg;Viitasaarelle;1280x720;DECREASING_DIRECTION;http://weathercam.digitraffic.fi/C0852602.jpg;Tie 6570 Tossavanlahdelle;1280x720;CROSSING_ROAD_INCREASING_DIRECTION;http://weathercam.digitraffic.fi/C0852603.jpg;Tie 552 Vesannolle;1280x720;CROSSING_ROAD_DECREASING_DIRECTION;http://weathercam.digitraffic.fi/C0852604.jpg;Tienpinta;1280x720;SPECIAL_DIRECTION;http://weathercam.digitraffic.fi/C0852609.jpg
8527;28.454163;63.340184;720;Road 75 Rautavaara, Hankamäki;75;12;3266;Nurmekseen;704x576;INCREASING_DIRECTION;http://weathercam.digitraffic.fi/C0852701.jpg;Siilinjärvelle;704x576;DECREASING_DIRECTION;http://weathercam.digitraffic.fi/C0852702.jpg;Tienpinta;704x576;SPECIAL_DIRECTION;http://weathercam.digitraffic.fi/C0852709.jpg
8528;28.045121;62.931678;720;Road 9 Kuopio, Vartiala;9;330;6603;Joensuuhun;1280x720;INCREASING_DIRECTION;http://weathercam.digitraffic.fi/C0852801.jpg;Kuopioon;1280x720;DECREASING_DIRECTION;http://weathercam.digitraffic.fi/C0852802.jpg;Tienpinta;1280x720;SPECIAL_DIRECTION;http://weathercam.digitraffic.fi/C0852809.jpg
8529;29.145983;62.564705;720;Road 23 Liperi, Kaatamo;23;416;435;Joensuuhun;704x576;INCREASING_DIRECTION;http://weathercam.digitraffic.fi/C0852901.jpg;Varkauteen;704x576;DECREASING_DIRECTION;http://weathercam.digitraffic.fi/C0852902.jpg;Tienpinta;704x576;SPECIAL_DIRECTION;http://weathercam.digitraffic.fi/C0852909.jpg
8530;28.96071;62.700715;720;Road 9 Outokumpu, Ulla;9;343;30;Kuopioon;704x576;INCREASING_DIRECTION;http://weathercam.digitraffic.fi/C0853001.jpg;Joensuuhun;704x576;DECREASING_DIRECTION;http://weathercam.digitraffic.fi/C0853002.jpg;Tienpinta;704x576;SPECIAL_DIRECTION;http://weathercam.digitraffic.fi/C0853009.jpg
8531;29.728748;62.618315;720;Road 9 Joensuu, Noljakka;9;353;1940;Joensuuhun;1280x720;INCREASING_DIRECTION;http://weathercam.digitraffic.fi/C0853101.jpg;Kuopioon;1280x720;DECREASING_DIRECTION;http://weathercam.digitraffic.fi/C0853102.jpg;Tienpinta;1280x720;SPECIAL_DIRECTION;http://weathercam.digitraffic.fi/C0853109.jpg
8532;28.165408;62.407354;720;Road 23 Leppävirta, Soisalo;23;405;1100;Joensuuhun;1280x720;INCREASING_DIRECTION;http://weathercam.digitraffic.fi/C0853201.jpg;Varkauteen;1280x720;DECREASING_DIRECTION;http://weathercam.digitraffic.fi/C0853202.jpg;Tienpinta;1280x720;SPECIAL_DIRECTION;http://weathercam.digitraffic.fi/C0853209.jpg
8533;27.660939;63.040002;720;Road 5Siilinjärvi, Räimä;5;205;2580;Iisalmeen;1280x720;INCREASING_DIRECTION;http://weathercam.digitraffic.fi/C0853301.jpg;Kuopioon;1280x720;DECREASING_DIRECTION;http://weathercam.digitraffic.fi/C0853302.jpg;Tienpinta;1280x720;SPECIAL_DIRECTION;http://weathercam.digitraffic.fi/C0853309.jpg
8534;28.449154;62.978784;720;Road 573 Kaavi;569;1;5;Tie 573 Kaaville;1280x720;DECREASING_DIRECTION;http://weathercam.digitraffic.fi/C0853402.jpg;Tie 566 Riistavedelle;1280x720;CROSSING_ROAD_INCREASING_DIRECTION;http://weathercam.digitraffic.fi/C0853403.jpg;Tie 569 Juankoskelle;1280x720;CROSSING_ROAD_DECREASING_DIRECTION;http://weathercam.digitraffic.fi/C0853404.jpg;Tie 569 tienpinta;1280x720;SPECIAL_DIRECTION;http://weathercam.digitraffic.fi/C0853409.jpg
8535;27.998791;62.767344;720;Road 536 Kuopio, Vehmersalmi;536;7;3365;Vehmersalmelle;1280x720;INCREASING_DIRECTION;http://weathercam.digitraffic.fi/C0853501.jpg;Leppävirralle;1280x720;DECREASING_DIRECTION;http://weathercam.digitraffic.fi/C0853502.jpg;Tie 16401 Ritoniemeen;1280x720;CROSSING_ROAD_DECREASING_DIRECTION;http://weathercam.digitraffic.fi/C0853504.jpg;Tienpinta;1280x720;SPECIAL_DIRECTION;http://weathercam.digitraffic.fi/C0853509.jpg
8536;27.249218;63.544022;720;Road 5 Iisalmi, Pöytäkangas;5;217;2129;Kajaaniin;1280x720;INCREASING_DIRECTION;http://weathercam.digitraffic.fi/C0853601.jpg;Kuopioon;1280x720;DECREASING_DIRECTION;http://weathercam.digitraffic.fi/C0853602.jpg;Tienpinta;1280x720;SPECIAL_DIRECTION;http://weathercam.digitraffic.fi/C0853609.jpg
8537;27.527911;63.21277;720;Road 5 Lapinlahti, Alapitkä;5;209;2056;Kajaaniin;1280x720;INCREASING_DIRECTION;http://weathercam.digitraffic.fi/C0853701.jpg;Kuopioon;1280x720;DECREASING_DIRECTION;http://weathercam.digitraffic.fi/C0853702.jpg;Tienpinta;1280x720;SPECIAL_DIRECTION;http://weathercam.digitraffic.fi/C0853709.jpg
8538;27.635852;62.884793;720;Road 5 Kuopio, Siikalahti;5;160;60;Iisalmeen;1280x720;INCREASING_DIRECTION;http://weathercam.digitraffic.fi/C0853801.jpg;Varkauteen;1280x720;DECREASING_DIRECTION;http://weathercam.digitraffic.fi/C0853802.jpg;Savilahdelle;1280x720;CROSSING_ROAD_INCREASING_DIRECTION;http://weathercam.digitraffic.fi/C0853803.jpg;Tasavallankatu;1280x720;CROSSING_ROAD_DECREASING_DIRECTION;http://weathercam.digitraffic.fi/C0853804.jpg;Tienpinta;1280x720;SPECIAL_DIRECTION;http://weathercam.digitraffic.fi/C0853809.jpg
8540;30.173316;62.559261;720;Road 74 Joensuu, Heinävaara;74;4;11761;Ilomantsiin;704x576;INCREASING_DIRECTION;http://weathercam.digitraffic.fi/C0854001.jpg;Joensuuhun;704x576;DECREASING_DIRECTION;http://weathercam.digitraffic.fi/C0854002.jpg
8541;29.808879;61.900117;720;Road 6 Kitee, Kesälahti;6;329;6595;Joensuuhun;704x576;INCREASING_DIRECTION;http://weathercam.digitraffic.fi/C0854101.jpg;Lappeenrantaan;704x576;DECREASING_DIRECTION;http://weathercam.digitraffic.fi/C0854102.jpg;Tienpinta;704x576;SPECIAL_DIRECTION;http://weathercam.digitraffic.fi/C0854109.jpg
8543;30.123326;62.310956;720;Road 6 Tohmajärvi, Onkamo;6;342;5151;Joensuuhun;704x576;INCREASING_DIRECTION;http://weathercam.digitraffic.fi/C0854301.jpg;Lappeenrantaan;704x576;DECREASING_DIRECTION;http://weathercam.digitraffic.fi/C0854302.jpg;Tohmajärvelle;704x576;CROSSING_ROAD_DECREASING_DIRECTION;http://weathercam.digitraffic.fi/C0854304.jpg;Tienpinta;704x576;SPECIAL_DIRECTION;http://weathercam.digitraffic.fi/C0854309.jpg
